[
  {
    "id": "living-like-a-local",
    "title": "Living Like a Local",
    "dek": "A compact Grass Valley and Nevada City loop for coffee, books, galleries, and the places locals actually point visitors toward.",
    "stops": [
      {
        "placeId": "booktown-books-grass-valley",
        "name": "Booktown Books",
        "category": "Performing Arts",
        "city": "Grass Valley",
        "lat": 39.218004537862,
        "lng": -121.061994770376,
        "note": "Performing Arts stop for living like a local."
      },
      {
        "placeId": "the-center-for-the-arts-grass-valley",
        "name": "The Center for the Arts",
        "category": "Performing Arts",
        "city": "Grass Valley",
        "lat": 39.219198882614,
        "lng": -121.063916416125,
        "note": "Performing Arts stop for living like a local."
      },
      {
        "placeId": "nevada-city-winery-nevada-city",
        "name": "Nevada City Winery",
        "category": "Eat, Drink & Stay",
        "city": "Nevada City",
        "lat": 39.262271128562,
        "lng": -121.020172770363,
        "note": "Eat, Drink & Stay stop for living like a local."
      },
      {
        "placeId": "nevada-theatre-nevada-city",
        "name": "Nevada Theatre",
        "category": "Historic Places",
        "city": "Nevada City",
        "lat": 39.262859761086,
        "lng": -121.019941282163,
        "note": "Historic Places stop for living like a local."
      }
    ]
  },
  {
    "id": "gallery-studio-day",
    "title": "Gallery & Studio Day",
    "dek": "A daylight route through galleries, studios, and public-facing creative spaces in the GVNC Cultural District.",
    "stops": [
      {
        "placeId": "art-works-gallery-grass-valley",
        "name": "Art Works Gallery",
        "category": "Galleries & Studios",
        "city": "Grass Valley",
        "lat": 39.219049510822,
        "lng": -121.063026505856,
        "note": "Galleries & Studios stop for gallery & studio day."
      },
      {
        "placeId": "c-h-a-m-p-gallery-at-city-hall-nevada-city",
        "name": "C.H.A.M.P. Gallery at City Hall",
        "category": "Galleries & Studios",
        "city": "Nevada City",
        "lat": 39.262757231496,
        "lng": -121.019506446573,
        "note": "Galleries & Studios stop for gallery & studio day."
      },
      {
        "placeId": "the-curious-forge-nevada-city",
        "name": "The Curious Forge",
        "category": "Arts Organizations",
        "city": "Nevada City",
        "lat": 39.254933782504,
        "lng": -121.134189389754,
        "note": "Arts Organizations stop for gallery & studio day."
      }
    ]
  },
  {
    "id": "evening-arts-night",
    "title": "Evening Arts Night",
    "dek": "A night-out route connecting performance, film, music, and after-hours cultural anchors.",
    "stops": [
      {
        "placeId": "miners-foundry-cultural-center-nevada-city",
        "name": "Miners Foundry Cultural Center",
        "category": "Galleries & Studios",
        "city": "Nevada City",
        "lat": 39.262271128562,
        "lng": -121.020172770363,
        "note": "Galleries & Studios stop for evening arts night."
      },
      {
        "placeId": "nevada-theatre-nevada-city",
        "name": "Nevada Theatre",
        "category": "Historic Places",
        "city": "Nevada City",
        "lat": 39.262859761086,
        "lng": -121.019941282163,
        "note": "Historic Places stop for evening arts night."
      },
      {
        "placeId": "the-center-for-the-arts-grass-valley",
        "name": "The Center for the Arts",
        "category": "Performing Arts",
        "city": "Grass Valley",
        "lat": 39.219198882614,
        "lng": -121.063916416125,
        "note": "Performing Arts stop for evening arts night."
      },
      {
        "placeId": "the-stone-house-nevada-city",
        "name": "The Stone House",
        "category": "Eat, Drink & Stay",
        "city": "Nevada City",
        "lat": 39.261881669972,
        "lng": -121.016047930694,
        "note": "Eat, Drink & Stay stop for evening arts night."
      }
    ]
  }
]
