[
  {
    "id": "living-like-a-local",
    "title": "Living Like a Local",
    "dek": "A compact Grass Valley and Nevada City loop for coffee, books, galleries, and the places locals actually point visitors toward.",
    "stops": [
      {
        "placeId": "booktown-books-grass-valley",
        "name": "Booktown Books",
        "category": "Shops & Makers",
        "city": "Grass Valley",
        "lat": 39.218004537862,
        "lng": -121.061994770376,
        "note": "Shops & Makers stop for living like a local."
      },
      {
        "placeId": "the-center-for-the-arts-grass-valley",
        "name": "The Center for the Arts",
        "category": "Performing Arts",
        "city": "Grass Valley",
        "lat": 39.219198882614,
        "lng": -121.063916416125,
        "note": "Performing Arts stop for living like a local."
      },
      {
        "placeId": "nevada-city-winery-nevada-city",
        "name": "Nevada City Winery",
        "category": "Eat, Drink & Stay",
        "city": "Nevada City",
        "lat": 39.262271128562,
        "lng": -121.020172770363,
        "note": "Eat, Drink & Stay stop for living like a local."
      },
      {
        "placeId": "nevada-theatre-nevada-city",
        "name": "Nevada Theatre",
        "category": "Historic Places",
        "city": "Nevada City",
        "lat": 39.262859761086,
        "lng": -121.019941282163,
        "note": "Historic Places stop for living like a local."
      }
    ]
  },
  {
    "id": "makers-working-artists",
    "title": "Makers / Working Artists",
    "thesis": "Culture in western Nevada County is something people make, teach, share, and practice together.",
    "dek": "A working-arts path that follows art from a public gallery into studios, classes, tools, and hands-on creative practice.",
    "copy": "This path shows that the Discovery Map can point to culture being made, taught, shared, and practiced, not only culture on a calendar. Art Works Gallery, ASiF Studios, and The Curious Forge each make the creative process visible: artists showing current work, studio communities teaching and practicing skills, and maker spaces opening tools and craft to more people.",
    "stops": [
      {
        "placeId": "art-works-gallery-grass-valley",
        "name": "Art Works Gallery",
        "category": "Galleries & Studios",
        "city": "Grass Valley",
        "lat": 39.219049510822,
        "lng": -121.063026505856,
        "note": "Start with working artists presenting finished pieces in a cooperative downtown gallery."
      },
      {
        "placeId": "asif-studios-grass-valley",
        "name": "ASiF Studios",
        "category": "Galleries & Studios",
        "city": "Grass Valley",
        "lat": 39.222542531384,
        "lng": -121.051461055927,
        "note": "Continue into a studio community where classes and shared workspace keep art practice visible."
      },
      {
        "placeId": "the-curious-forge-nevada-city",
        "name": "The Curious Forge",
        "category": "Arts Organizations",
        "city": "Nevada City",
        "lat": 39.254933782504,
        "lng": -121.134189389754,
        "note": "End at a maker space where tools, workshops, and hands-on learning broaden what creative production can mean."
      }
    ]
  },
  {
    "id": "evening-arts-night",
    "title": "Evening Arts Night",
    "dek": "A night-out route connecting performance, film, music, and a late dinner.",
    "stops": [
      {
        "placeId": "miners-foundry-cultural-center-nevada-city",
        "name": "Miners Foundry Cultural Center",
        "category": "Performing Arts",
        "city": "Nevada City",
        "lat": 39.262271128562,
        "lng": -121.020172770363,
        "note": "Performing Arts stop for evening arts night."
      },
      {
        "placeId": "nevada-theatre-nevada-city",
        "name": "Nevada Theatre",
        "category": "Historic Places",
        "city": "Nevada City",
        "lat": 39.262859761086,
        "lng": -121.019941282163,
        "note": "Historic Places stop for evening arts night."
      },
      {
        "placeId": "the-center-for-the-arts-grass-valley",
        "name": "The Center for the Arts",
        "category": "Performing Arts",
        "city": "Grass Valley",
        "lat": 39.219198882614,
        "lng": -121.063916416125,
        "note": "Performing Arts stop for evening arts night."
      },
      {
        "placeId": "the-stone-house-nevada-city",
        "name": "The Stone House",
        "category": "Eat, Drink & Stay",
        "city": "Nevada City",
        "lat": 39.261881669972,
        "lng": -121.016047930694,
        "note": "Eat, Drink & Stay stop for evening arts night."
      }
    ]
  },
  {
    "id": "landscape-ridge-context",
    "title": "Pond, Ridge & Schoolhouse",
    "thesis": "The quiet side of Nevada County culture — a pond trail in town and a century-old schoolhouse on the San Juan Ridge.",
    "dek": "A slower path: walk Hirschman's Pond at the edge of Nevada City, then drive the Ridge to the North Columbia Schoolhouse.",
    "copy": "Not everything cultural happens on a stage. This pairing puts the landscape itself on the itinerary — a wetland trail reclaimed from hydraulic mining, and a one-room schoolhouse that became the Ridge's gathering place for music, film, and storytelling.",
    "stops": [
      {
        "placeId": "hirschman-s-pond-nevada-city",
        "name": "Hirschman Trail / Hirschman's Pond",
        "category": "Historic Places",
        "city": "Nevada City",
        "lat": 39.26017277050303,
        "lng": -121.01361440937157,
        "note": "A flat wetland loop minutes from downtown — herons, ponds, and the scars of hydraulic mining gone green."
      },
      {
        "placeId": "north-columbia-schoolhouse-cultural-center-nevada-city",
        "name": "North Columbia Schoolhouse Cultural Center",
        "category": "Galleries & Studios",
        "city": "Nevada City",
        "lat": 39.37154953491,
        "lng": -120.991370222943,
        "note": "An 1875 one-room schoolhouse, now the Ridge's living room for concerts, films, and storytelling festivals."
      }
    ]
  }
]
