{"type":"FeatureCollection","features":[{"type":"Feature","id":1,"geometry":{"type":"Point","coordinates":[-121.036218982724,39.2324595163263]},"properties":{"Artisan_Places_to_Eat__Drink_an":null,"Name":"1849 Brewing Company","Address":"468 Sutton Wy","City":"Grass Valley","State":"CA","Zip":"95945","Phone":"530-477-1849","Website":"https://www.1849brewingco.com","Mission":"1849 Brewing Co. is a brewery in Grass Valley, CA bringing great tasting modern and traditional style beers, as well as, delicious American pub style food to the Grass Valley, Nevada City, Auburn, and greater Sacramento areas.","ObjectId":1}},{"type":"Feature","id":2,"geometry":{"type":"Point","coordinates":[-121.062542835619,39.2139154419624]},"properties":{"Artisan_Places_to_Eat__Drink_an":null,"Name":"A Victorian Rose","Address":"120 Winchester St","City":"Grass Valley","State":"CA","Zip":"95945","Phone":"925-825-6462","Website":"http://www.a-victorian-rose.com/ ","Mission":"Our restored 1891 Victorian vacation home is located in the convenient Downtown Historic District of Grass Valley, Ca. right in the Heart of the Gold Country! Our beautiful, luxury four bedroom home is tastefully decorated with antique & eclectic furnishings.","ObjectId":2}},{"type":"Feature","id":3,"geometry":{"type":"Point","coordinates":[-120.184510753335,39.3292153439063]},"properties":{"Artisan_Places_to_Eat__Drink_an":null,"Name":"Alibi Ale Works","Address":"10069 Bridge St","City":"Truckee","State":"CA","Zip":"96161","Phone":"530-536-5029","Website":"http://www.alibialeworks.com/ ","Mission":null,"ObjectId":3}},{"type":"Feature","id":4,"geometry":{"type":"Point","coordinates":[-121.050846271157,39.1357422676668]},"properties":{"Artisan_Places_to_Eat__Drink_an":null,"Name":"Alta Sierra Village Inn","Address":"11858 Tammy Way","City":"Grass Valley","State":"CA","Zip":"95949","Phone":"530-273-9102","Website":"https://www.altasierravillageinn.com/ ","Mission":"The Alta Sierra Village Inn is Nevada County's Best Kept Secret! Situated in an amazing location next to the premiere Alta Sierra Golf Course and Country Club away from the crowds!  Enjoy peace and quiet and the tranquility of the foothills.  The Inn features 16 rooms, including one six room Suite, one two room Suite, and 14 one room units.","ObjectId":4}},{"type":"Feature","id":5,"geometry":{"type":"Point","coordinates":[-121.11230341807,39.2686878964622]},"properties":{"Artisan_Places_to_Eat__Drink_an":null,"Name":"Avanguardia Winery","Address":"13028 Jones Bar Rd","City":"Nevada City","State":"CA","Zip":"95959","Phone":"530-274-9482","Website":"http://www.avanguardiawines.com/ ","Mission":"A small (actually ultra-boutique) winery, we are the home of non-traditional blended wines, with the great majority of our wines being proprietary blends crafted from 2 to 6 different grape varieties, many of which are Italian, and all of which are pretty much out of the mainstream.","ObjectId":5}},{"type":"Feature","id":6,"geometry":{"type":"Point","coordinates":[-121.063202773061,39.2173005866527]},"properties":{"Artisan_Places_to_Eat__Drink_an":null,"Name":"Avanguardia Winery","Address":"163 Mill St","City":"Grass Valley","State":"CA","Zip":"95945","Phone":"530-274-9911","Website":"http://www.avanguardiawines.com/ ","Mission":"An ultra-boutique winery, we are the home of non-traditional blended wines, with the great majority of our wines being proprietary blends crafted from 2 to 6 different grape varieties, many of which are Italian, and all of which are pretty much out of the mainstream.","ObjectId":6}},{"type":"Feature","id":7,"geometry":{"type":"Point","coordinates":[-121.0182299308,39.2624670827203]},"properties":{"Artisan_Places_to_Eat__Drink_an":null,"Name":"Bistro 221","Address":"221 Broad St","City":"Nevada City","State":"CA","Zip":"95959","Phone":"530-265-0221","Website":"http://www.bistro221nevadacity.com/","Mission":"When we opened March of 2013, we  simply wanted to make our customers happy, while serving quality food.","ObjectId":7}},{"type":"Feature","id":8,"geometry":{"type":"Point","coordinates":[-121.178271446199,39.1975758103419]},"properties":{"Artisan_Places_to_Eat__Drink_an":null,"Name":"Blue Cow Deli","Address":"17500 Penn Valley Dr, Ste A","City":"Penn Valley","State":"CA","Zip":"95946","Phone":"530-432-5500","Website":"http://bluecowdeli.com/ ","Mission":"A small town sandwich shop in a friendly, ranch-style environment ","ObjectId":8}},{"type":"Feature","id":9,"geometry":{"type":"Point","coordinates":[-121.020737690205,39.2632337140693]},"properties":{"Artisan_Places_to_Eat__Drink_an":null,"Name":"Broad Street Bistro and Gallery","Address":"426 Broad St","City":"Nevada City","State":"CA","Zip":"95959","Phone":"532-432-3056","Website":"http://www.broadstreetbistro.com/contact/","Mission":"Coffee shop and art gallery with an outdoor patio. Also serve sandwiches, soup, bagels, salads, desserts as well as beer and wine. ","ObjectId":9}},{"type":"Feature","id":10,"geometry":{"type":"Point","coordinates":[-121.025078303844,39.2525995939963]},"properties":{"Artisan_Places_to_Eat__Drink_an":null,"Name":"California Organics Restaurant & Gallery","Address":"135 Argall Wy","City":"Nevada City","State":"CA","Zip":"95959","Phone":"530- 265-9392","Website":"http://www.californiaorganics.com/ ","Mission":"Committed to procuring the best organic foods and products for our customers.","ObjectId":10}},{"type":"Feature","id":11,"geometry":{"type":"Point","coordinates":[-121.001895006996,39.1843355085611]},"properties":{"Artisan_Places_to_Eat__Drink_an":null,"Name":"Casa del Campo Guest House","Address":"12640 Greenfields Wy","City":"Grass Valley","State":"CA","Zip":"95945","Phone":"530-273-5067","Website":"https://www.casadelcampo.org ","Mission":"Welcome to the Casa del Campo Guest House, offering a super vacation rental  option in the Northern California Gold Country.  Nestled in the hamlet of Peardale, just a short drive from the quaint and diverse Grass Valley and Nevada City downtown districts, our charming guest rental studio apartment, the Casita Fresca, is available by reservation only for your short term lodging needs. ","ObjectId":11}},{"type":"Feature","id":12,"geometry":{"type":"Point","coordinates":[-121.063441112276,39.2190764994]},"properties":{"Artisan_Places_to_Eat__Drink_an":null,"Name":"Cirino’s at Main Street","Address":"213 W Main St","City":"Grass Valley","State":"CA","Zip":"95945","Phone":"530-477-6000","Website":"http://www.cirinosatmainstreet.com/ ","Mission":"Jerry Cirino has invited guests to his family table for the past 35 years and has served his signature dishes to those who celebrate great food, great friends and good cheer. A neighborhood restaurant patronized by local residents and visitors alike. Proudly serving pastas, lamb, steaks, and seafood. Featuring a full bar and an extensive wine list.","ObjectId":12}},{"type":"Feature","id":13,"geometry":{"type":"Point","coordinates":[-120.350014270004,39.3167350265338]},"properties":{"Artisan_Places_to_Eat__Drink_an":null,"Name":"Claire Tappan Lodge","Address":"19940 Donner Pass Rd","City":"Norden","State":"CA","Zip":"95724","Phone":"530-426-3632","Website":"http://www.clairtappaanlodge.com/ ","Mission":"Nestled in the woods on historic Donner Pass, Clair Tappaan Lodge offers a rustic mountain retreat for snow enthusiasts and summer adventurers alike. Approximately one mile from the Pacific Crest Trail and 25 miles from Lake Tahoe, we’re your headquarters for year round recreation in the Sierra Nevada.","ObjectId":13}},{"type":"Feature","id":14,"geometry":{"type":"Point","coordinates":[-121.018062671681,39.2630825181494]},"properties":{"Artisan_Places_to_Eat__Drink_an":null,"Name":"Cooper’s Ale Works","Address":"235 Commercial St","City":"Nevada City","State":"CA","Zip":"95959","Phone":"530-265-0116","Website":"http://coopersnclive.com/ ","Mission":"Coopers, located in historic downtown Nevada City has been a favorite bar and live music venue for over a decade. We entertain the citizens of Nevada City and Northern California with a wide variety of live music from Rock and Roll to Bluegrass and Reggae. Coopers has hosted nationally touring acts such as Leon Russell and Commander Cody as well regional favorites and rising local artists.  And Coopers full bar has the largest selection of draft ales, lagers and ciders in the area.","ObjectId":14}},{"type":"Feature","id":15,"geometry":{"type":"Point","coordinates":[-121.063036582039,39.2178908138265]},"properties":{"Artisan_Places_to_Eat__Drink_an":null,"Name":"Cork 49","Address":"142 Mill St","City":"Grass Valley","State":"CA","Zip":"95945","Phone":"530-277-8524","Website":"http://www.cork49gv.com/","Mission":"We specialize in providing wine, beer, cider, and charcuterie for friends and visitors to enjoy here in historic Grass Valley, CA. Featuring wines from all over the world, we are lucky to partner with some of the best! If you're in town, be sure to stop by and say hello.  We'd love to meet you.","ObjectId":15}},{"type":"Feature","id":16,"geometry":{"type":"Point","coordinates":[-120.18179545076,39.3250681209793]},"properties":{"Artisan_Places_to_Eat__Drink_an":null,"Name":"Cottonwood Restaurant & Bar","Address":"10142 Rue Hilltop","City":"Truckee","State":"CA","Zip":"96160","Phone":"530-587-5711","Website":"https://cottonwoodrestaurant.com/ ","Mission":"Cottonwood overlooks downtown Truckee from one of the nation’s oldest ski lodges. Local artists featured on the walls. ","ObjectId":16}},{"type":"Feature","id":17,"geometry":{"type":"Point","coordinates":[-121.062481429481,39.220392386324]},"properties":{"Artisan_Places_to_Eat__Drink_an":null,"Name":"Courtyard Inn & Suites","Address":"210 No Auburn St","City":"Grass Valley","State":"CA","Zip":"95945","Phone":"530-272-7696","Website":"http://www.gvcourtyardsuites.com/our-hotel/ ","Mission":"As a guest of the Grass Valley Courtyard Suites, you’ll discover a delightful blend of Bed and Breakfast charm and posh hotel amenities. We’re nestled in a quiet neighborhood conveniently located one block from historic downtown Grass Valley. Our 42 luxurious and spacious guestrooms and suites each reflect a unique style and character.","ObjectId":17}},{"type":"Feature","id":18,"geometry":{"type":"Point","coordinates":[-121.01754138022,39.2631498200085]},"properties":{"Artisan_Places_to_Eat__Drink_an":null,"Name":"Crazy Horse Saloon & Grill","Address":"238 Commercial St","City":"Nevada City ","State":"CA","Zip":"95959","Phone":"530-265-4000","Website":"http://crazyhorsenc.com/ ","Mission":"Built on an expansive foundation of colorful history, we feel like every day in Nevada City presents the opportunity for a new adventure. Our identity is synonymous with world class live music, elevated bar food, a full range of libations, sporting spirit and an overriding comfort factor that makes us a home away from home. ","ObjectId":18}},{"type":"Feature","id":19,"geometry":{"type":"Point","coordinates":[-121.017889369595,39.2623368170154]},"properties":{"Artisan_Places_to_Eat__Drink_an":null,"Name":"City Council","Address":"233 Broad St","City":"Nevada City","State":"CA","Zip":"95959","Phone":"530-264-7788","Website":null,"Mission":"World class Italian espresso, premium loose leaf teas, and organic pastries. A proper espresso cafe and music venue, 8am to 12am daily.","ObjectId":19}},{"type":"Feature","id":20,"geometry":{"type":"Point","coordinates":[-121.015922853233,39.26272778798]},"properties":{"Artisan_Places_to_Eat__Drink_an":null,"Name":"Deer Creek Inn","Address":"116 Nevada St","City":"Nevada City","State":"CA","Zip":"95959","Phone":"530-264-7038","Website":"http://www.deercreekinn.net/ ","Mission":"An 1860 fully restored Queen Anne Victorian B&B. Creekside setting within walking distance to Nevada City. Elegance, Romance & Affordable. Who could ask for more?","ObjectId":20}},{"type":"Feature","id":21,"geometry":{"type":"Point","coordinates":[-121.085196139924,39.0877899571341]},"properties":{"Artisan_Places_to_Eat__Drink_an":null,"Name":"Dew Drop Inn","Address":"19729 Cerrito Rd","City":"Grass Valley","State":"CA","Zip":"95949","Phone":"530-268-1065","Website":"https://www.facebook.com/dewdropinn49/","Mission":"Friendliest bar in America featuring Old Fashion Road House Fun! Biker friendly. We cater parties too. Must be 21 or older","ObjectId":21}},{"type":"Feature","id":22,"geometry":{"type":"Point","coordinates":[-121.058998328748,39.2160287582308]},"properties":{"Artisan_Places_to_Eat__Drink_an":null,"Name":"Diego’s Restaurant","Address":"217 Colfax Ave","City":"Grass Valley","State":"CA","Zip":"95945","Phone":"530-477-1460","Website":"https://diegosrestaurant.com/ ","Mission":"Diego’s Chilean Inspired South American Restaurant has an eclectic, relaxing atmosphere, featuring fresh ingredients, professional, quality dishes, generous portions and friendly, attentive service. Diego’s makes every attempt to purchase organic ingredients from local farmers to bring you the healthiest and freshest restaurant experience possible. ","ObjectId":22}},{"type":"Feature","id":23,"geometry":{"type":"Point","coordinates":[-120.2860126172,39.3256978820689]},"properties":{"Artisan_Places_to_Eat__Drink_an":null,"Name":"Donner Lake Bed & Breakfast","Address":"10070 Gregory Pl","City":"Truckee","State":"CA","Zip":"96161","Phone":"530-587-5574","Website":"https://www.donnerlakeinn.com/ ","Mission":"This mountain lodge across from Donner Lake sits on over an acre of forest along year round Gregory Creek and offers something for everyone. Each themed guest room in our inn has a gas fireplace, private bath and forest views. Families will appreciate our comfortably furnished great room with fireplace, books, and games. ","ObjectId":23}},{"type":"Feature","id":24,"geometry":{"type":"Point","coordinates":[-121.047860211863,39.23083369728]},"properties":{"Artisan_Places_to_Eat__Drink_an":null,"Name":"Durga’s Divine Cafe","Address":"1237 East Main St","City":"Grass Valley","State":"CA","Zip":"95945","Phone":"530-443-1010","Website":"http://durgasdivinecafe.com ","Mission":"Located at the corner of East Main Street and Dorsey Drive, Durgas Divine cafe offers locally sourced, delicious organic meals. We are Rainforest Alliance certified and carry a selection of vegan, gluten free, and paleo foods. ","ObjectId":24}},{"type":"Feature","id":25,"geometry":{"type":"Point","coordinates":[-121.058827685675,39.2160622086835]},"properties":{"Artisan_Places_to_Eat__Drink_an":null,"Name":"Elam Biggs Bed & Breakfast","Address":"220 Colfax Ave","City":"Grass Valley","State":"CA","Zip":"95945","Phone":"530-477-0906","Website":"http://elambiggs.com/ ","Mission":"Your home in the Grass Valley and Nevada City Gold Country.","ObjectId":25}},{"type":"Feature","id":26,"geometry":{"type":"Point","coordinates":[-121.019945841452,39.2629399720906]},"properties":{"Artisan_Places_to_Eat__Drink_an":null,"Name":"Elixart Herbal Lounge & Gallery","Address":"408 Broad St","City":"Nevada City","State":"CA","Zip":"95959","Phone":"530-265-1901","Website":"http://www.elixart.com/ ","Mission":"Elixart is an herbal elixir lounge and visionary art gallery offering the highest integrity and highest vibration ingredients throughout our menu of mood-enhancing elixir drinks, kava, tea, and other exotics; raw food, and premium organic products. ","ObjectId":26}},{"type":"Feature","id":27,"geometry":{"type":"Point","coordinates":[-121.021936232339,39.2646917232685]},"properties":{"Artisan_Places_to_Eat__Drink_an":null,"Name":"Emma Nevada House","Address":"528 E Broad St","City":"Nevada City","State":"CA","Zip":"95959","Phone":"530-265-4415","Website":"http://www.emmanevadahouse.com/","Mission":"This elegantly restored and decorated 1856 Victorian is named for 19th Century opera star Emma Nevada. Quiet location, gourmet breakfast. Six rooms, private bath, fireplaces, jacuzzi tubs.","ObjectId":27}},{"type":"Feature","id":28,"geometry":{"type":"Point","coordinates":[-120.163441505863,39.3216694871493]},"properties":{"Artisan_Places_to_Eat__Drink_an":null,"Name":"Fifty Fifty Brewing Company","Address":"11197 Brockway Rd, No 1","City":"Truckee","State":"CA","Zip":"95959","Phone":"530-587-2337","Website":"https://fiftyfiftybrewing.com/ ","Mission":"FiftyFifty Brewing Co. is a locally owned and operated craft brewpub, home to internationally award winning brews, as well as sustainable and organic food. Come enjoy our full bar, beautiful patio, and warm friendly atmosphere. Lunch, dinner, and of course beer, served daily. And check our website for live music and special events. ","ObjectId":28}},{"type":"Feature","id":29,"geometry":{"type":"Point","coordinates":[-121.019224502364,39.2619842322595]},"properties":{"Artisan_Places_to_Eat__Drink_an":null,"Name":"Foxhound Expresso","Address":"317 Spring St","City":"Nevada City ","State":"CA","Zip":"95959","Phone":"530-265-0200","Website":"https://www.facebook.com/FoxHoundEspresso/ ","Mission":"Passionately served, compassionately crafted made to order hand roasted coffee with a strong emphasis on home brewing education and cultural development. ","ObjectId":29}},{"type":"Feature","id":30,"geometry":{"type":"Point","coordinates":[-121.018759261285,39.2627484123049]},"properties":{"Artisan_Places_to_Eat__Drink_an":null,"Name":"Friar Tucks Restaurant & Bar","Address":"111 North Pine St","City":"Nevada City ","State":"CA","Zip":"95959","Phone":"530-265-9093","Website":"http://friartucks.com/ ","Mission":"Friar Tuck’s on the corner of Pine and Commercial Street in Nevada City’s Historic District has been a festive dining and lounge experience since 1973. Friar Tuck’s features a warm, unique atmosphere with friendly staff, an extensive steak, seafood and fondue menu, award winning wine list, classic cocktails and live music nightly.","ObjectId":30}},{"type":"Feature","id":31,"geometry":{"type":"Point","coordinates":[-121.019345346431,39.2596979514948]},"properties":{"Artisan_Places_to_Eat__Drink_an":null,"Name":"Gold Creek Inn B&B","Address":"317 S Pine St","City":"Nevada City","State":"CA","Zip":"95959","Phone":"530-264-7548","Website":"http://www.goldcreekinn.com ","Mission":"This newly renovated 1860 Victorian Bed & Breakfast stands aside the confluence of Deer Creek & Gold Run Creek a block away from Downtown Nevada City. The Inn has 5 unique rooms of which most have their own private bathrooms, & balconies that overlook the Nevada City Historic Flume that spans the canyon with views the year round babbling creek & waterfall. Enjoy a glass of wine, coffee or tea along the creekside patio under the forest canopy.","ObjectId":31}},{"type":"Feature","id":32,"geometry":{"type":"Point","coordinates":[-121.01913784099,39.2627019729632]},"properties":{"Artisan_Places_to_Eat__Drink_an":null,"Name":"Golden Era Lounge","Address":"309 Broad St","City":"Nevada City","State":"CA","Zip":"95959","Phone":"530-264-7048","Website":"http://www.goldeneralounge.com/home.html ","Mission":"Born out of our love for the rich history of Nevada City, Golden Era was envisioned to become a premiere location for handcrafted cocktails, premium local wines, and craft beers. The Golden Era location has been serving cocktails, spirits & beers since 1867 in the heart of the gold country. Our historic bar was made in the mid 1890s in Chicago, and has been in place here since 1904.  Our handcrafted cocktails are made from house made syrups & bitters reminiscent of the Golden Era of turn of the century & Prohibition style cocktails. We also have a handcrafted soda fountain offering of non alcoholic beverages.","ObjectId":32}},{"type":"Feature","id":33,"geometry":{"type":"Point","coordinates":[-121.063522499641,39.2191294901204]},"properties":{"Artisan_Places_to_Eat__Drink_an":null,"Name":"Golden Gate Saloon","Address":"212 West Main St","City":"Grass Valley","State":"CA","Zip":"95945","Phone":"530-460-1945","Website":"https://www.holbrooke.com/saloon/ ","Mission":"The Golden Gate Saloon is known as the old­est con­tin­u­ously oper­at­ing saloon west of the Mis­sis­sippi. Stephen and Clara Smith were among the first to invest in this boomtown known today as Grass Valley. They built the Golden Gate Saloon which sadly, was destroyed by a fire in 1855 along with most of Grass Valley. The Smiths rebuilt the popular saloon as a one story fieldstone building with a brick façade, making it safer from the threat of another fire.","ObjectId":33}},{"type":"Feature","id":34,"geometry":{"type":"Point","coordinates":[-121.060458597735,39.2194597074071]},"properties":{"Artisan_Places_to_Eat__Drink_an":null,"Name":"Grass Valley Brewing Company","Address":"141 East Main St","City":"Grass Valley","State":"CA","Zip":"95945","Phone":"530-271-2739","Website":"https://www.gvbrew.com/ ","Mission":"Grass Valley Brewing Company is a small, locally owned brewery in Grass Valley, CA.  We are a 15 barrel brewery that produces a variety of classic and innovative beers. When you visit you will typically find 12 classic and innovative beers on tap. If you’re hungry, we’ve got you covered with a full service kitchen. Our draft and canned beers are available throughout the region.","ObjectId":34}},{"type":"Feature","id":35,"geometry":{"type":"Point","coordinates":[-120.942502689866,39.2874358317715]},"properties":{"Artisan_Places_to_Eat__Drink_an":null,"Name":"Harmony Ridge Lodge","Address":"18883 Hwy 20","City":"Nevada City","State":"CA","Zip":"95959","Phone":"530-478-0615","Website":"https://www.harmonyridgelodge.com","Mission":"A mixture of rustic luxury in a stunning natural setting makes Harmony Ridge Lodge the perfect getaway. Our spacious guest suites are exquisitely designed, with many amenities to make you feel at ease. All guest suites have mini refrigerators, microwaves and coffee pots. In the morning we offer continental breakfast in our dining room or outside on the deck. Our tended gardens and 3.5 acres of private woods are a great way to take in the beauty of nature.","ObjectId":35}},{"type":"Feature","id":36,"geometry":{"type":"Point","coordinates":[-121.017881895612,39.2624841780287]},"properties":{"Artisan_Places_to_Eat__Drink_an":null,"Name":"Haven Underground","Address":"226 Broad St","City":"Nevada City","State":"CA","Zip":"95959","Phone":"707-336-2230","Website":"http://www.havendowntown.com/ ","Mission":"Haven is located at 226 Broad Street in the heart of historical downtown Nevada City featuring a beer, wine & herbal elixir bar, friendly staff and fun atmosphere. The Haven offers a Funktion 1 sound system, huge dance floor and a schedule of top notch artists. The Haven is also available to rent for private parties, events, classes, workshops and performances.","ObjectId":36}},{"type":"Feature","id":37,"geometry":{"type":"Point","coordinates":[-121.019586521627,39.2633188022318]},"properties":{"Artisan_Places_to_Eat__Drink_an":null,"Name":"Ike’s Quarter Cafe","Address":"401 Commercial St","City":"Nevada City","State":"CA","Zip":"95959","Phone":"530-265-6138","Website":"http://www.ikesquartercafe.com/ ","Mission":" Our cuisine is that of Louisiana. New Orleans to be specific. We chose New Orleans because the food is warm, tasty, and delicious. We also chose New Orleans because it is a melting pot, with a Cajun foundation, and diverse ethnic contributions. The food is delicious from the first bite to the last.  ","ObjectId":37}},{"type":"Feature","id":38,"geometry":{"type":"Point","coordinates":[-121.01895801983,39.2498050045429]},"properties":{"Artisan_Places_to_Eat__Drink_an":null,"Name":"Inn Town Campground","Address":"9 Kidder Ct","City":"Nevada City","State":"CA","Zip":"95959","Phone":"530-265-9900","Website":"https://inntowncampground.com/ ","Mission":"Located just minutes from downtown Nevada City, California! Dan and Erin Thiem, owners of the Outside Inn, are excited to bring Nevada City a new, vibrant camping experience. The campground is located on a historic 15 acre site, just under two miles from downtown Nevada City.","ObjectId":38}},{"type":"Feature","id":39,"geometry":{"type":"Point","coordinates":[-121.024495341242,39.2526005469997]},"properties":{"Artisan_Places_to_Eat__Drink_an":null,"Name":"Jernigan’s Tap House & Grill","Address":"123 Argall Wy","City":"Nevada City","State":"CA","Zip":"95959","Phone":"530-265-6999","Website":"http://www.jernigansgrill.com/ ","Mission":"Jernigan’s features fresh, draft beers, delicious handmade food and sports on our big screens. ","ObjectId":39}},{"type":"Feature","id":40,"geometry":{"type":"Point","coordinates":[-121.061350225061,39.2193340379211]},"properties":{"Artisan_Places_to_Eat__Drink_an":null,"Name":"Kane's Family Restaurant","Address":"120 East Main St","City":"Grass Valley","State":"CA","Zip":"95945","Phone":"530-273-8111","Website":"http://kanesrestaurant.com/","Mission":"Opened by executive chef owner John Kane in 2006, Kane’s Bar & Grill in Downtown Grass Valley, California is an open exhibition style kitchen so you can watch us cook ala Original Joe’s in San Francisco, family friendly restaurant featuring a very eclectic Italian American fare. We serve a wide selection of dishes (pizza, pasta, sandwiches, burgers, steaks, chops, roasts, fish, chicken, and seafood).","ObjectId":40}},{"type":"Feature","id":41,"geometry":{"type":"Point","coordinates":[-121.065622101411,39.2161851286252]},"properties":{"Artisan_Places_to_Eat__Drink_an":null,"Name":"Lamb’s Victorian Inn","Address":"304 Church St","City":"Grass Valley","State":"CA","Zip":"95945","Phone":"530-615-4652","Website":"http://www.lambsvictorianinn.com/ ","Mission":"Lamb’s Victorian Inn is an elegant and cozy bed and breakfast, located walking distance from a charming historic downtown, where you can enjoy many restaurants, boutique shops, antiques, art galleries, book stores, and wine tasting rooms. ","ObjectId":41}},{"type":"Feature","id":42,"geometry":{"type":"Point","coordinates":[-121.01638363238,39.2620085319817]},"properties":{"Artisan_Places_to_Eat__Drink_an":null,"Name":"Lefty’s Grill","Address":"101 Broad St","City":"Nevada City","State":"CA","Zip":"95959","Phone":"530-265-5838","Website":"https://leftysgrill.com","Mission":"The Restaurant is owned and operated by left handed Chefs, Chris Duncan and John Cammack. Established in 2008, Lefty’s Grill is Located in Historic Downtown Nevada City, CA with the goal of serving fantastic local food, great prices and a casual dining experience. Our Historic building, built in 1872, has been around since the Gold Rush.","ObjectId":42}},{"type":"Feature","id":43,"geometry":{"type":"Point","coordinates":[-121.062997941905,39.21833666498]},"properties":{"Artisan_Places_to_Eat__Drink_an":null,"Name":"Lucchesi Vineyards Tasting Room","Address":"128 Mill St","City":"Grass Valley","State":"CA","Zip":"95945","Phone":"530-615-4222","Website":"http://www.lucchesivineyards.com ","Mission":"The Lucchesi Tasting Room is open from 11:00 am until the party's over, every day except Easter, Christmas, and Thanksgiving. Our summer hours are extended for special events, please call us for more information.","ObjectId":43}},{"type":"Feature","id":44,"geometry":{"type":"Point","coordinates":[-121.024528671434,39.165361697056]},"properties":{"Artisan_Places_to_Eat__Drink_an":null,"Name":"Lucchesi Vineyards Winery","Address":"19698 View Forever Ln","City":"Grass Valley","State":"CA","Zip":"95945","Phone":"530-273-1596","Website":"http://www.lucchesivineyards.com/ ","Mission":"High upon a hillside overlooking Nevada County with beautiful views of the Sierra Nevada mountains is our vineyard and winery. Come visit Nevada County, take in the views and discover our world class, limited production wines.  ","ObjectId":44}},{"type":"Feature","id":45,"geometry":{"type":"Point","coordinates":[-120.187329876903,39.3272545054092]},"properties":{"Artisan_Places_to_Eat__Drink_an":null,"Name":"Marg’s Taco Bistro","Address":"10164 Donner Pass Rd","City":"Truckee","State":"CA","Zip":"96161","Phone":"530-587-6274","Website":"http://www.margstacobistro.com/ ","Mission":"At Margs Taco Bistro, Chef Bryan Brutsch reinterprets Latin cuisine, blending traditional Latino flavors with global ingredients and cooking techniques. The menu is inspired by ingredients and cooking techniques from as close to home as our backyard gardens and as far away as Asia. And what pairs better with an authentic Mexican dish than unforgettable margaritas, ice cold Mexican beers, and dozens of rare tequilas?","ObjectId":45}},{"type":"Feature","id":46,"geometry":{"type":"Point","coordinates":[-121.019367797126,39.2627579840817]},"properties":{"Artisan_Places_to_Eat__Drink_an":null,"Name":"McGee’s Annex","Address":"315 Broad St","City":"Nevada City","State":"CA","Zip":"95959","Phone":"530-265-3205","Website":"https://www.facebook.com/Mcgeesmanage/ ","Mission":"After 34 years in business, the recently remodeled McGee's Annex is still going strong with the addition of fresh cooked pizza and local beer to our menu.","ObjectId":46}},{"type":"Feature","id":47,"geometry":{"type":"Point","coordinates":[-121.063024470952,39.2188743066647]},"properties":{"Artisan_Places_to_Eat__Drink_an":null,"Name":"MeZe Eatery","Address":"106 Mill St","City":"Grass Valley","State":"CA","Zip":"95945","Phone":"530-205-9679","Website":"https://mezeeatery.com/ ","Mission":"Mezé is a Middle Eastern Eatery offering conscious, healthy and simple food, a casual and warm atmosphere, ordering convenience, excellent customer service and attention to detail","ObjectId":47}},{"type":"Feature","id":48,"geometry":{"type":"Point","coordinates":[-120.184130690512,39.3284107499115]},"properties":{"Artisan_Places_to_Eat__Drink_an":null,"Name":"Moody’s Bistro Bar and Beats","Address":"10007 Bridge St","City":"Truckee","State":"CA","Zip":"96161","Phone":"530-587-8688","Website":"http://www.moodysbistro.com/","Mission":"Moody’s Bistro Bar & Beats is the place in Truckee for great food and atmosphere. Set in the warmhearted ambiance of the historic Truckee Hotel, Moody’s complements its fine dining with critically praised, nationally touring Jazz, Americana, Soul and Rhythm and Blues bands with a splash of Hip Hop.","ObjectId":48}},{"type":"Feature","id":49,"geometry":{"type":"Point","coordinates":[-121.185697982147,39.0619338929494]},"properties":{"Artisan_Places_to_Eat__Drink_an":null,"Name":"Naggiar Vineyards","Address":"18125 Rosemary Ln","City":"Grass Valley","State":"CA","Zip":"95949","Phone":"530-268-9059","Website":"http://naggiarvineyards.com/ ","Mission":"A surprising gem in the budding Sierra Foothills wine industry, Naggiar is much more than just an off the beaten path treasure. Our winery is also the source of some of California’s most desirable grapes, a vast array of varietals grown at the ideal 1,300 foot elevation. We save our most prized grapes, however, for the enjoyment of our family and guests. All of our wines are estate grown, produced and bottled; ripe with nuance, distinctly evocative, and always exceeding expectations.","ObjectId":49}},{"type":"Feature","id":50,"geometry":{"type":"Point","coordinates":[-121.017927509367,39.262385998362]},"properties":{"Artisan_Places_to_Eat__Drink_an":null,"Name":"National Exchange Hotel","Address":"211 Broad St","City":"Nevada City ","State":"CA","Zip":"95959","Phone":"530-265-4551","Website":null,"Mission":"The National Hotel is the oldest, continuously operational Hotel and Bar, west of the Rockies. A registered and treasured historical landmark. ","ObjectId":50}},{"type":"Feature","id":51,"geometry":{"type":"Point","coordinates":[-121.018095451206,39.2624910303395]},"properties":{"Artisan_Places_to_Eat__Drink_an":null,"Name":"Nevada City Classic Café","Address":"216 West Broad St","City":"Nevada City ","State":"CA","Zip":"95959","Phone":"530-265-9440","Website":"http://www.ncclassiccafe.com","Mission":"Here at the Classic we proudly mix our US and French family heritage, our world traveling and ten years of dining experience to create a classic menu focused on old style, Nevada city meals, mixed with a blend of French country family cuisine. We make sure to select organic and natural foods whenever possible to ensure you receive only the best when it comes to your meal. Featured in the Hallmark movie, The Christmas Card.","ObjectId":51}},{"type":"Feature","id":52,"geometry":{"type":"Point","coordinates":[-121.020089194605,39.2622570776559]},"properties":{"Artisan_Places_to_Eat__Drink_an":null,"Name":"Nevada City Winery","Address":"321 Spring St","City":"Nevada City ","State":"CA","Zip":"95959","Phone":"530-265-9463","Website":"https://www.ncwinery.com","Mission":"Nevada City Winery represents the rustic history and elegance of Northern California. As the oldest operating winery in the region, the founder is attributed to revitalizing the wine industry in this foothill appellation. Proud of its origin and connected to its roots, Nevada City Winery has purchased grapes from local growers to produce award winning wines dating back to 1980.","ObjectId":52}},{"type":"Feature","id":53,"geometry":{"type":"Point","coordinates":[-121.019400847044,39.2634339567354]},"properties":{"Artisan_Places_to_Eat__Drink_an":null,"Name":"New Moon Cafe","Address":"203 York St","City":"Nevada City","State":"CA","Zip":"95959","Phone":"530- 265-6399","Website":"http://www.thenewmooncafe.com/index.html","Mission":"Incredible food prepared with the freshest most natural ingredients from scratch. All of which may be enjoyed with a vast array of wines and beers. ","ObjectId":53}},{"type":"Feature","id":54,"geometry":{"type":"Point","coordinates":[-121.024420762209,39.2526868946233]},"properties":{"Artisan_Places_to_Eat__Drink_an":null,"Name":"Ol’ Republic Brewery","Address":"124 Argall Wy","City":"Nevada City","State":"CA","Zip":"95959","Phone":"530-264-7263","Website":"http://www.olrepublicbrewery.com/ ","Mission":"Ol' Republic Brewery opened its doors in February 2012 in the historic mining town of Nevada City.  Brewers Jim Harte and Simon Olney have always been fascinated with old world beer styles.","ObjectId":54}},{"type":"Feature","id":55,"geometry":{"type":"Point","coordinates":[-120.944948103495,39.2866518633604]},"properties":{"Artisan_Places_to_Eat__Drink_an":null,"Name":"Ol’ Republic Roadhouse","Address":"18851 State Hwy 20","City":"Nevada City","State":"CA","Zip":"95959","Phone":"530-470-8745","Website":"http://www.olrepublicroadhouse.com/ ","Mission":"After serving the Nevada County community delicious beer for over six years, we decided it was time to add delicious food. We purchased the 5 Mile House to create an extension of the atmosphere cultivated at the Nevada City Taproom. Make it your local watering hole, your second dining room, your favorite place to meet family and friends, the place you come to at the end of a hard day for a great beer and tasty food.","ObjectId":55}},{"type":"Feature","id":56,"geometry":{"type":"Point","coordinates":[-120.190845483174,39.3254628570089]},"properties":{"Artisan_Places_to_Eat__Drink_an":null,"Name":"Philosphy","Address":"10412 Donner Pass Rd","City":"Truckee","State":"CA","Zip":"96161","Phone":"530-536-5129","Website":"https://www.truckeephilosophy.com/ ","Mission":"Food with integrity. Our philosophy is grounded in our commitment to a simply designed, health conscious, organic menu that reflects our minimalist approach. We hope you enjoy.","ObjectId":56}},{"type":"Feature","id":57,"geometry":{"type":"Point","coordinates":[-120.18559735191,39.3278160155625]},"properties":{"Artisan_Places_to_Eat__Drink_an":null,"Name":"Pianeta Ristorante","Address":"10096 Donner Pass Rd","City":"Truckee","State":"CA","Zip":"96161","Phone":"530-587-4694","Website":"http://www.pianetarestauranttruckee.com/ ","Mission":"We are a cozy restaurant located in the heart of historic downtown Truckee, specializing in creating delicious Italian foods, homemade pastas, and stellar dining service since 1998. We feature an extensive menu with nightly specials inspired by the delicious cuisine of Northern Italy. We also feature an impressive rotating wine list with numerous options from California and Italy, and a full bar featuring classic cocktails and aperitifs. We are defined by our welcoming friendly staff, remarkable consistent food, and warm eclectic old world ambiance.","ObjectId":57}},{"type":"Feature","id":58,"geometry":{"type":"Point","coordinates":[-121.023402791329,39.257053107604]},"properties":{"Artisan_Places_to_Eat__Drink_an":null,"Name":"Piety Hill Cottages Motel  B&B","Address":"523 Sacramento St","City":"Nevada City","State":"CA","Zip":"95959","Phone":"530-265-2245","Website":"http://www.pietyhillcottages.com/ ","Mission":"Comfortable, casual, and private, our cozy cottages are a relaxed setting for singles, couples and families. As our guest, you will retire to a one, two or three room cottage with French/English Country or Early American decor.  ","ObjectId":58}},{"type":"Feature","id":59,"geometry":{"type":"Point","coordinates":[-121.198933914951,39.1688482839438]},"properties":{"Artisan_Places_to_Eat__Drink_an":null,"Name":"Pilot Peak Winery","Address":"12888 Spenceville Rd","City":"Penn Valley","State":"CA","Zip":"95946","Phone":"530-432-3321","Website":"http://pilotpeak.com/  ","Mission":"Pilot Peak Winery is located in Northern California’s Sierra Foothills, an hour north of Sacramento and just a few miles outside Grass Valley and Nevada City in the town of Penn Valley. Comparative Tasting is a private and relaxed tasting method that allows you to savor, compare and contrast each wine. ","ObjectId":59}},{"type":"Feature","id":60,"geometry":{"type":"Point","coordinates":[-121.019540548545,39.2646482230208]},"properties":{"Artisan_Places_to_Eat__Drink_an":null,"Name":"Pine Street Porch","Address":"424 N Pine St","City":"Nevada City","State":"CA","Zip":"95959","Phone":"530-559-8995","Website":"http://pinestreetporch.com/ ","Mission":"A luxurious Victorian home with modern convenience and incredible comfort in downtown Nevada City. Truly a home for all seasons! Splendid in snow, spring, summer, or the height of fall color. Live theater, fine dining, wine tasting, art galleries, boutique shops, all within walking distance. The film venues for Nevada City and the Wild & Scenic Film Festivals are all a short walk away. ","ObjectId":60}},{"type":"Feature","id":61,"geometry":{"type":"Point","coordinates":[-121.018203587705,39.2625258879484]},"properties":{"Artisan_Places_to_Eat__Drink_an":null,"Name":"Purveyors Pantry","Address":"220 Broad St","City":"Nevada City","State":"CA","Zip":"95959","Phone":"530-470-6167","Website":"http://www.purveyorspantry.com/ ","Mission":"Enjoy a local culinary adventure by tasting your way through the Purveyors Pantry retail tasting room, a true brand experience. Over 100 different locally made sauces, condiments and spreads available to taste. Purveyors Pantry also produces jams, spreads and sauces for a number of northern CA farms and artisans, all available to sample. Purveyors Pantry Kitchen focuses on all natural and organic ingredients, responsibly sourced. Dine on freshly baked muffins, cookies and breads, have a great bowl of house made soup or lite fare menu on the weekends","ObjectId":61}},{"type":"Feature","id":62,"geometry":{"type":"Point","coordinates":[-121.062908979946,39.218793123882]},"properties":{"Artisan_Places_to_Eat__Drink_an":null,"Name":"Sergio’s Caffe","Address":"109 Mill St","City":"Grass Valley","State":"CA","Zip":"95945","Phone":"530-274-2600","Website":"http://www.sergioscaffe.com/ ","Mission":"Sergio’s appreciation for food from around the world started with his parents, who moved from Italy to Argentina after World War II. He and Lena, who is originally from Ukraine, married in 2002 and opened Sergio's Caffé soon after. Their vision of opening a modest restaurant with affordable, good food has far exceeded their initial goal to the delight of their well pleased customers.","ObjectId":62}},{"type":"Feature","id":63,"geometry":{"type":"Point","coordinates":[-120.180564420156,39.3357904726843]},"properties":{"Artisan_Places_to_Eat__Drink_an":null,"Name":"Sierra Bakehouse","Address":"10736 Pioneer Tr, No 12","City":"Truckee","State":"CA","Zip":"96161","Phone":"530-562-9494","Website":"https://www.sierrabakehouse.com/ ","Mission":"Sierra Bakehouse is owned by pastry chefs Kristy and Daniella. Sierra Bakehouse combines their East and West Coast talents, bringing Truckee and Tahoe top notch high elevation baked goods. It is their mission to bring joy and flavor using high quality, local, organic ingredients. ","ObjectId":63}},{"type":"Feature","id":64,"geometry":{"type":"Point","coordinates":[-121.063514200106,39.1423063000565]},"properties":{"Artisan_Places_to_Eat__Drink_an":null,"Name":"Sierra Knolls Winery","Address":"10024 Linnet Ln","City":"Grass Valley","State":"CA","Zip":"95949","Phone":"530 269-2327","Website":"https://sierraknollswinery.com ","Mission":"Small Lot Wine, Friendly Wine Tasting. Our goal is to have our visitors Come for the Wine and Savor the Experience. Toward that end, Friday evenings, year round, mean live bands and amazing Oak-fired Brick Oven Pizza and other delicious fare. ","ObjectId":64}},{"type":"Feature","id":65,"geometry":{"type":"Point","coordinates":[-121.069066113752,39.2211898002065]},"properties":{"Artisan_Places_to_Eat__Drink_an":null,"Name":"Sierra Mountain Inn","Address":"816 W Main St","City":"Grass Valley","State":"CA","Zip":"95945","Phone":"530-273-8133","Website":"http://sierramountaininn.com/ ","Mission":"A charming boutique Inn with 12 uniquely appointed rooms and suites and stand alone cozy cottage. Conveniently located 3 blocks from theatres, restaurants and shops in Historic Downtown Grass Valley, a 15 minute drive to scenic rivers and lakes, and a 60 minute drive to the ski resorts.","ObjectId":65}},{"type":"Feature","id":66,"geometry":{"type":"Point","coordinates":[-121.062871477079,39.2191234756781]},"properties":{"Artisan_Places_to_Eat__Drink_an":null,"Name":"Sierra Starr Vineyard & Winery (Store)","Address":"124 W Main St","City":"Grass Valley","State":"CA","Zip":"95945","Phone":"530-477-8282","Website":"http://sierrastarr.com/ ","Mission":"The Starr family has been producing award winning wines in the Sierra Foothills since 1996. We take pride in crafting small lot wines from our estate vineyards, specializing in Zinfandel, Sauvignon Blanc and Cabernet Franc (along with many others).   We strive for our wines to express our unique terroir and showcase varietal character at its finest.","ObjectId":66}},{"type":"Feature","id":67,"geometry":{"type":"Point","coordinates":[-121.089267974935,39.2113819950023]},"properties":{"Artisan_Places_to_Eat__Drink_an":null,"Name":"Sierra Starr Vineyard & Winery (Winery)","Address":"11179 Gibson Dr","City":"Grass Valley","State":"CA","Zip":"95945","Phone":"530-477-8277","Website":"http://sierrastarr.com/ ","Mission":"The Starr family has been producing award winning wines in the Sierra Foothills since 1996. We take pride in crafting small lot wines from our estate vineyards, specializing in Zinfandel, Sauvignon Blanc and Cabernet Franc (along with many others).   We strive for our wines to express our unique terroir and showcase varietal character at its finest.","ObjectId":67}},{"type":"Feature","id":68,"geometry":{"type":"Point","coordinates":[-121.019306873384,39.2633271393888]},"properties":{"Artisan_Places_to_Eat__Drink_an":null,"Name":"Sopa Thai Cuisine","Address":"312-316 Commercial St","City":"Nevada City","State":"CA","Zip":"95959","Phone":"530-470-0101","Website":"http://www.sopathai.net/ ","Mission":"Located in the heart of Yuba City and Nevada City, Sopa Thai Cuisine saw its first day in 2004. A typical Thai restaurant, Sopa Thai Cuisine has a casual ambiance and an atmosphere that transports you directly to the top of the Grand Palace in Bangkok. Our homemade cuisine is a perfectly inexpensive recipe, a little bit of tradition, an ounce of modern cooking inspired by different regions, and a big cup of love from our Chef Owner Sopa and her team.","ObjectId":68}},{"type":"Feature","id":69,"geometry":{"type":"Point","coordinates":[-121.018896186992,39.2622896366649]},"properties":{"Artisan_Places_to_Eat__Drink_an":null,"Name":"South Pine Cafe","Address":"110 South Pine St","City":"Nevada City","State":"CA","Zip":"95959","Phone":"530-265-0260","Website":"https://www.southpinecafe.com/ ","Mission":"Thank you for visiting us at South Pine Cafe. We serve breakfast, lunch and beer at both of our locations. We are located both in Grass Valley and Nevada City, California. We are dedicated to serving freshly prepared and healthy dining options. Whenever possible, we support our local farmers and vendors. Our menu items are made in house, to order, with fresh and natural ingredients.  ","ObjectId":69}},{"type":"Feature","id":70,"geometry":{"type":"Point","coordinates":[-121.062142157358,39.220031460641]},"properties":{"Artisan_Places_to_Eat__Drink_an":null,"Name":"South Pine Cafe","Address":"102 N Richardson St","City":"Grass Valley","State":"CA","Zip":"95945","Phone":"530-274-0261","Website":"https://www.southpinecafe.com/ ","Mission":"Thank you for visiting us at South Pine Cafe. We serve breakfast, lunch and beer at both of our locations. We are located both in Grass Valley and Nevada City, California. We are dedicated to serving freshly prepared and healthy dining options. Whenever possible, we support our local farmers and vendors. Our menu items are made in house, to order, with fresh and natural ingredients.  ","ObjectId":70}},{"type":"Feature","id":71,"geometry":{"type":"Point","coordinates":[-120.169334198107,39.3243981682723]},"properties":{"Artisan_Places_to_Eat__Drink_an":null,"Name":"Stella Restaurant","Address":"10918 Brockway Rd","City":"Truckee","State":"CA","Zip":"96161","Phone":"530-582-5655","Website":"https://www.cedarhousesporthotel.com/stella/ ","Mission":"Stella is an interactive culinary dining affair.  Stella highlights a focused menu shaped by creative imagination that combines familiarity with innovation. All of our meals are accompanied by direct access to our chefs throughout the evening to ensure you remain connected to what’s behind each menu.  It is our goal to give our community an intimate dining experience showcasing new approaches to traditional and exotic flavors in conjunction with what defines Truckee and North Lake Tahoe…..its people.","ObjectId":71}},{"type":"Feature","id":72,"geometry":{"type":"Point","coordinates":[-121.058112656353,39.215891557756]},"properties":{"Artisan_Places_to_Eat__Drink_an":null,"Name":"Summer Thyme's Bakery & Deli","Address":"231 Colfax Ave","City":"Grass Valley","State":"CA","Zip":"95945","Phone":"530-273-2904","Website":"http://www.summerthymes.com/ ","Mission":"Espresso Bar, Natural foods, Organic & Fair Trade. Locovore, Gluten Free, Made to order breakfasts. Live Music on Saturday and Sundays from 10 am to 1 pm.","ObjectId":72}},{"type":"Feature","id":73,"geometry":{"type":"Point","coordinates":[-121.017307642176,39.2623479969051]},"properties":{"Artisan_Places_to_Eat__Drink_an":null,"Name":"Sushi at Nourish","Address":"106 Union St","City":"Nevada City","State":"CA","Zip":"95959","Phone":"530-478-1770","Website":"www.sushiatnourish.com","Mission":null,"ObjectId":73}},{"type":"Feature","id":74,"geometry":{"type":"Point","coordinates":[-121.019394169867,39.2628190119527]},"properties":{"Artisan_Places_to_Eat__Drink_an":null,"Name":"Szabo Vineyards Tasting Room","Address":"316 Broad St","City":"Nevada City","State":"CA","Zip":"95959","Phone":"530-265-8792","Website":"http://www.szabovineyards.com","Mission":"Szabo Vineyards is a small, family owned operation producing wines made exclusively from grapes grown on our estate in the historic Sierra Foothills of Nevada City, CA. ","ObjectId":74}},{"type":"Feature","id":75,"geometry":{"type":"Point","coordinates":[-120.169334198107,39.3243981682723]},"properties":{"Artisan_Places_to_Eat__Drink_an":null,"Name":"The Cedar House Sport Hotel","Address":"10918 Brockway Rd","City":"Truckee","State":"CA","Zip":"96161","Phone":"530-582-5655","Website":"https://www.cedarhousesporthotel.com/ ","Mission":"The Cedar House Sport Hotel is an active lifestyle hotel with 42 rooms and suites in a hip European style, complete with an avant garde restaurant and in-house adventure guiding company.","ObjectId":75}},{"type":"Feature","id":76,"geometry":{"type":"Point","coordinates":[-121.063522499641,39.2191294901204]},"properties":{"Artisan_Places_to_Eat__Drink_an":null,"Name":"The Holbrooke Hotel","Address":"212 W Main St","City":"Grass Valley","State":"CA","Zip":"95945","Phone":"530-460-1945","Website":"https://www.holbrooke.com/ ","Mission":"The Holbrooke Hotel, located in the heart of gold country, has a storied past and welcomed guests including presidents Ulysses S. Grant, Grover Cleveland, Benjamin Harrison, and James Garfield, authors Mark Twain and Jack London, and the infamous Black Bart. ","ObjectId":76}},{"type":"Feature","id":77,"geometry":{"type":"Point","coordinates":[-121.020645110731,39.2631011573593]},"properties":{"Artisan_Places_to_Eat__Drink_an":null,"Name":"The Madison House","Address":"427 Broad St","City":"Nevada City","State":"CA","Zip":"95959","Phone":"530-470-6127","Website":"http://www.themadisonhouse.net/ ","Mission":"Historic Bed & Breakfast, Victorian rooms, Hearty Breakfast, gracious hospitality, convenient location, off street parking ","ObjectId":77}},{"type":"Feature","id":78,"geometry":{"type":"Point","coordinates":[-121.018265529238,39.2625328557122]},"properties":{"Artisan_Places_to_Eat__Drink_an":null,"Name":"The Mine Shaft","Address":"222 Broad St","City":"Nevada City","State":"CA","Zip":"95959","Phone":"530-265-6310","Website":"http://www.mineshaftsaloon.com/ ","Mission":"An old fashioned Saloon where everyone is welcome to gather, enjoy and relax!!! ","ObjectId":78}},{"type":"Feature","id":79,"geometry":{"type":"Point","coordinates":[-121.018095451206,39.2624910303395]},"properties":{"Artisan_Places_to_Eat__Drink_an":null,"Name":"The Nevada City Classic Café","Address":"216 West Broad St","City":"Nevada City ","State":"CA","Zip":"95959","Phone":"530-265-9440","Website":"http://www.ncclassiccafe.com ","Mission":"Here at the Classic we proudly mix our US and French family heritage, our world traveling and ten years of dining experience to create a classic menu focused on old style, Nevada city meals, mixed with a blend of French country family cuisine. As we have our customers’ best interests in mind, especially when it comes to their food, we make sure to select organic and natural foods whenever possible to ensure you receive only the best when it comes to your meal.  ","ObjectId":79}},{"type":"Feature","id":80,"geometry":{"type":"Point","coordinates":[-121.022281610311,39.266667281391]},"properties":{"Artisan_Places_to_Eat__Drink_an":null,"Name":"The Outside Inn","Address":"575 E Broad St","City":"Nevada City","State":"CA","Zip":"95959","Phone":"530-265-2233","Website":" https://outsideinn.com/ ","Mission":"Providing lodging in Nevada City, California, the Outside Inn is a small hotel that sits in a quiet residential neighborhood just two blocks from downtown. The family owned motel features unique themed rooms under tall pines and is just a short walk to bookstores, coffee, shopping, entertainment and restaurants.","ObjectId":80}},{"type":"Feature","id":81,"geometry":{"type":"Point","coordinates":[-120.185648361845,39.328551283808]},"properties":{"Artisan_Places_to_Eat__Drink_an":null,"Name":"The Pour House","Address":"10075 Jibboom St","City":"Truckee","State":"CA","Zip":"96161","Phone":"530-550-9664","Website":"http://www.thepourhousetruckee.com/ ","Mission":"The Pour House is the Truckee local's secret spot and a delicious escape from the hustle of the main drag. Cozy up to our bar and sample small production wines from around the world, at great local's rate pricing. We have the best cheese selection in Truckee as well, with all the crackers, salami, olives, jams and jellies you could want for the perfect picnic at the bar, apres ski or blizzard rations. And did someone say chocolate? We've got you covered there, too. ","ObjectId":81}},{"type":"Feature","id":82,"geometry":{"type":"Point","coordinates":[-121.063580999728,39.2190764994]},"properties":{"Artisan_Places_to_Eat__Drink_an":null,"Name":"The Pour House","Address":"217 W Main St","City":"Grass Valley","State":"CA","Zip":"95945","Phone":"530-802-5414","Website":"https://www.thepourhousegv.com/ ","Mission":"With 15 taps of fresh cold craft brew and a never ending list of local and top quality wines we have the perfect refreshment choice for everyone!","ObjectId":82}},{"type":"Feature","id":83,"geometry":{"type":"Point","coordinates":[-120.187479142767,39.3284119027013]},"properties":{"Artisan_Places_to_Eat__Drink_an":null,"Name":"The Richardson House Inn","Address":"10154 High St","City":"Truckee","State":"CA","Zip":"96161","Phone":"530-386-5551","Website":"http://www.therichardsonhouse.com/ ","Mission":"This beautifully restored historic Victorian home known as 'The Richardson House was originally built when Truckee was a Wild West railroad town. For decades the house was operated as a bed & breakfast and recently converted to a vacation rental. The home remains the centerpiece of Truckee as it overlooks downtown and the Truckee River. The Richardson House is within walking distance of the town's best restaurants and liveliest bars.  ","ObjectId":83}},{"type":"Feature","id":84,"geometry":{"type":"Point","coordinates":[-121.016166807817,39.2616053225702]},"properties":{"Artisan_Places_to_Eat__Drink_an":null,"Name":"The Stone House","Address":"107 Sacramento St","City":"Nevada City ","State":"CA","Zip":"95959","Phone":"530-265-5050","Website":"https://www.stonehouse.io/ ","Mission":"Our mission is to provide great food, inspiring libations and a conducive atmosphere for our guests to celebrate life in this historic Sierra foothills Restaurant, Tavern, Event Venue.","ObjectId":84}},{"type":"Feature","id":85,"geometry":{"type":"Point","coordinates":[-121.062031884665,39.2166842789682]},"properties":{"Artisan_Places_to_Eat__Drink_an":null,"Name":"The Thirsty Barrel Taphouse","Address":"116 Neal St","City":"Grass Valley","State":"CA","Zip":"95945","Phone":"530-802-5488","Website":"https://www.thirstybarrel.com/ ","Mission":"We look forward to providing you the best service and the greatest possible products we can.  We offer 30 taps of constantly rotating craft beers, great local wines, and great food to compliment both.  Plus we love dogs, bring your fury friend along to our dog friendly patio.  As we grow, it is our hopes that we become embedded as a staple in Grass Valley and Nevada County because we love our community.","ObjectId":85}},{"type":"Feature","id":86,"geometry":{"type":"Point","coordinates":[-120.184130690512,39.3284107499115]},"properties":{"Artisan_Places_to_Eat__Drink_an":null,"Name":"The Truckee Hotel","Address":"10007 Bridge St","City":"Truckee","State":"CA","Zip":"96161","Phone":"530-587-4444","Website":"http://www.truckeehotel.com/ ","Mission":"Located in the heart of historic downtown Truckee, when you walk into the lobby you will find a caring and gracious staff that will go out of their way to make you feel welcome and at home. The Truckee Hotel is centrally located to many North Lake Tahoe ski areas such as Squaw Valley, site of the 1960's Winter Olympics, as well as Northstar, Sugar Bowl, Alpine Meadows, Tahoe Donner, Royal Gorge and more.","ObjectId":86}},{"type":"Feature","id":87,"geometry":{"type":"Point","coordinates":[-121.056881722767,39.2687483913137]},"properties":{"Artisan_Places_to_Eat__Drink_an":null,"Name":"The Willo Steakhouse","Address":"16898 Hwy 49","City":"Nevada City","State":"CA","Zip":"95959","Phone":"530-265-9902","Website":"https://www.thewillo.com/ ","Mission":"Established 1969, full bar. A Nevada County institution. Voted best steak year after year by the readers of The Union. Also named favorite roadhouse by Sacramento Magazine. Over 1 million hand cut, choice, aged New York steaks cooked on our grill.","ObjectId":87}},{"type":"Feature","id":88,"geometry":{"type":"Point","coordinates":[-121.017142918103,39.2629673735012]},"properties":{"Artisan_Places_to_Eat__Drink_an":null,"Name":"Three Forks Bakery & Brewing Co.","Address":"211 Commercial St","City":"Nevada City","State":"CA","Zip":"95959","Phone":"530-470-8333","Website":"http://www.threeforksnc.com/ ","Mission":"Three Forks Bakery & Brewing Co serves wood-fired pizza, craft beer brewed in our 7 barrel brewhouse, regional wines, hard cider, artisan breads, baked goods, soup, salad, sandwiches, fresh drinks, loose leaf tea, espresso and coffee. We source as much of our food as possible from local organic producers.","ObjectId":88}},{"type":"Feature","id":89,"geometry":{"type":"Point","coordinates":[-121.063840931747,39.2191424091297]},"properties":{"Artisan_Places_to_Eat__Drink_an":null,"Name":"Tofanelli’s Gold Country Bistro","Address":"302 W Main St","City":"Grass Valley","State":"CA","Zip":"95945","Phone":"530-272-1468","Website":"http://www.tofanellis.com/ ","Mission":"Tofanelli's Gold Country Bistro, Nevada County's popular destination for breakfast, lunch, dinner... or simply enjoying a bottle of fine wine, delicious appetizers and fresh air in the charming outdoor patio. Enjoy our full bar too! ","ObjectId":89}},{"type":"Feature","id":90,"geometry":{"type":"Point","coordinates":[-120.228362181016,39.3226255391463]},"properties":{"Artisan_Places_to_Eat__Drink_an":null,"Name":"Truckee Donner Lodge","Address":"10527 Coldstream Rd","City":"Truckee","State":"CA","Zip":"96161","Phone":"530-582-9999","Website":"http://www.truckeedonnerlodge.com/ ","Mission":"Slow down, breathe and unwind at the Truckee Donner Lodge. Nestled in the heart of the Sierra Nevada mountains only minutes from Lake Tahoe and Donner Lake, the Truckee Donner Lodge is uniquely designed with your relaxation in mind. Rooms that are well appointed with rates that are unexpected. The lodge, seconds from historic downtown Truckee, is on the doorstep of wonderful restaurants, shops, nightlife, and an unrivaled recreational paradise surrounded by lakes and magnificent mountains.  ","ObjectId":90}},{"type":"Feature","id":91,"geometry":{"type":"Point","coordinates":[-120.159964432826,39.3200864251148]},"properties":{"Artisan_Places_to_Eat__Drink_an":null,"Name":"Truckee River Winery","Address":"11467 Brockway Rd","City":"Truckee","State":"CA","Zip":"96161","Phone":"530-587-4626","Website":"https://truckeeriverwinery.com/index.html","Mission":"Truckee River Winery was established 29 years ago with the vision of sourcing quality grapes, bringing the fruit to Truckee in order to take advantage of the high elevation and cold temperatures to naturally cool the fermentation and slow down the barrel aging process. Thus becoming the highest and coldest winery. Our focus from the beginning has been to produce handcrafted wines with great structure and finesse. Our award-winning Pinot Noir is the winemaker's pride and joy. ","ObjectId":91}},{"type":"Feature","id":92,"geometry":{"type":"Point","coordinates":[-121.203973388237,39.2065624610546]},"properties":{"Artisan_Places_to_Eat__Drink_an":null,"Name":"Twelve 28 Kitchen","Address":"10118 Commercial Ave","City":"Penn Valley","State":"CA","Zip":"95946","Phone":"530-446-6534","Website":"https://www.twelve28kitchen.com","Mission":"A warm and comfortable social gathering place where our passion is on food that we make from the heart and the people we get to enjoy it with! We source local ingredients when possible as well as local craft beers and wine. We look forward to having you as our guest!","ObjectId":92}},{"type":"Feature","id":93,"geometry":{"type":"Point","coordinates":[-121.062997941905,39.2181836650607]},"properties":{"Artisan_Places_to_Eat__Drink_an":null,"Name":"Watershed Restaurant","Address":"134 Mill St","City":"Grass Valley","State":"CA","Zip":"95945","Phone":"530-205-9070","Website":"https://watershedattheowl.com ","Mission":"A Slow Food inspired dining experience where the food we prepare is produced by and reflects the community we serve. Our communal dining style creates a warm, intimate setting to explore our menu by sharing dishes with others. ","ObjectId":93}},{"type":"Feature","id":94,"geometry":{"type":"Point","coordinates":[-121.069117165009,39.2105811697979]},"properties":{"Artisan_Places_to_Eat__Drink_an":null,"Name":"Wild Eye Pub","Address":"535 Mill St","City":"Grass Valley","State":"CA","Zip":"95945","Phone":"530-446-6668","Website":"https://www.wildeyepub.com/ ","Mission":"Wild Eye Pub gives customers great food, inspired drinks, and attentive service in a comfortable, art filled space; a perfect place to connect with others, nurture creative ideas, and nourish body and spirit. ","ObjectId":94}}]}