{"type":"FeatureCollection","features":[{"type":"Feature","id":1,"geometry":{"type":"Point","coordinates":[-121.192161383074,39.2013064093612]},"properties":{"Public_Art":null,"Name":"Sculpture - Western Gateway Park","longitude":null,"latitude":null,"Address":" 18560 Penn Valley Dr.","City":"Penn Valley","State":"CA","Zip":"95946","Description":null,"ObjectId":1}},{"type":"Feature","id":2,"geometry":{"type":"Point","coordinates":[-121.176667830348,39.1974450683836]},"properties":{"Public_Art":null,"Name":"Paintings at Penn Valley Chamber of Commerce","longitude":null,"latitude":null,"Address":"17422 Penn Valley Dr.","City":"Penn Valley","State":"CA","Zip":"95946","Description":"Three paintings by local artist Curre hang at the Chamber.","ObjectId":2}},{"type":"Feature","id":3,"geometry":{"type":"Point","coordinates":[-121.053667500375,39.2219190000204]},"properties":{"Public_Art":null,"Name":"Roundabout sculpture and dry stack wall","longitude":39.221666,"latitude":-121.053786,"Address":"East Main St. and Idaho Maryland","City":"Grass Valley","State":"CA","Zip":"95949","Description":"Artist: Kurt Steger (sculpture), Kris Behr (wall)","ObjectId":3}},{"type":"Feature","id":4,"geometry":{"type":"Point","coordinates":[-121.052106000239,39.2344335000294]},"properties":{"Public_Art":null,"Name":"Roundabout by Sierra College","longitude":39.234398,"latitude":-121.051994,"Address":"Sierra College Dr. and Litton Dr.","City":"Grass Valley","State":"CA","Zip":"95945","Description":"Artist: John Mowen  ","ObjectId":4}},{"type":"Feature","id":5,"geometry":{"type":"Point","coordinates":[-121.062911111648,39.2190361186638]},"properties":{"Public_Art":null,"Name":"Mural","longitude":null,"latitude":null,"Address":"101 Mill St.","City":"Grass Valley","State":"CA","Zip":"95945","Description":"Artist:  Justin Lovato, partnered with The Chambers Project. 20 x 80 ft.","ObjectId":5}},{"type":"Feature","id":6,"geometry":{"type":"Point","coordinates":[-121.06366352975,39.2189868199211]},"properties":{"Public_Art":null,"Name":"\"New Dawn\" Mural","longitude":null,"latitude":null,"Address":"105 S Church St.","City":"Grass Valley","State":"CA","Zip":"95945","Description":"Artist: Miles Toland. For Suicide awareness.","ObjectId":6}},{"type":"Feature","id":7,"geometry":{"type":"Point","coordinates":[-121.058112656353,39.215891557756]},"properties":{"Public_Art":null,"Name":"\"The Curious Salmon Bike Rackдуќ","longitude":null,"latitude":null,"Address":"231 Colfax Ave","City":"Grass Valley","State":"CA","Zip":"95945","Description":"Made and installed by Curious Forge. Description: Custom built bike rack in the shape of 5 salmon arching out of the pavement. Evolution:  Amy and Chamba Cooke (owners's Summer Thyme's) approached Liam Ellerby at the Curious Forge with the idea of a bike rack as an art piece. The piece intends to raise awareness of the salmon in our watershed, foster bicycle use as green transportation, and encourage the enjoyment of art as practical and useful. \r","ObjectId":7}},{"type":"Feature","id":8,"geometry":{"type":"Point","coordinates":[-121.052596562131,39.2352467555936]},"properties":{"Public_Art":null,"Name":"Metal Flower sculpture at Briar Patch","longitude":null,"latitude":null,"Address":"290 Sierra College Dr.","City":"Grass Valley","State":"CA","Zip":"95945","Description":"Artist: Sally Peterson","ObjectId":8}},{"type":"Feature","id":9,"geometry":{"type":"Point","coordinates":[-121.037704029941,39.2242324279019]},"properties":{"Public_Art":null,"Name":"Metal Flower sculpture at As-If Studios","longitude":null,"latitude":null,"Address":"940 Idaho Maryland Rd.","City":"Grass Valley","State":"CA","Zip":"95945","Description":"Artist: Sally Peterson","ObjectId":9}},{"type":"Feature","id":10,"geometry":{"type":"Point","coordinates":[-121.054559878693,39.2415447848791]},"properties":{"Public_Art":null,"Name":"Miner statue -- Nevada Union High School","longitude":null,"latitude":null,"Address":"11761 Ridge Rd.","City":"Grass Valley","State":"CA","Zip":"95945","Description":"Miner statue.","ObjectId":10}},{"type":"Feature","id":11,"geometry":{"type":"Point","coordinates":[-121.054559878693,39.2415447848791]},"properties":{"Public_Art":null,"Name":"Mining Artifact sculpture -- Nevada Union High School","longitude":null,"latitude":null,"Address":"11761 Ridge Rd.","City":"Grass Valley","State":"CA","Zip":"95945","Description":"Donated by Adelaide Tibessart  Plaque reads: \"Pelton water wheel. Donated by Adelaide Tibessart in memory of her father, Thomas N. Coan, miner and pioneer of Indian Flat.","ObjectId":11}},{"type":"Feature","id":12,"geometry":{"type":"Point","coordinates":[-121.046873519423,39.2285037341059]},"properties":{"Public_Art":null,"Name":"Stained Glass -- Lower waiting area lobby, Sierra Nevada Memorial Hospital","longitude":null,"latitude":null,"Address":"155 Glasson Way","City":"Grass Valley","State":"CA","Zip":"95945","Description":"Artist: Pamela Mengers Hodges  In chapel which is off the hallway when you come into the main entrance.","ObjectId":12}},{"type":"Feature","id":13,"geometry":{"type":"Point","coordinates":[-121.012456750422,39.2591615295895]},"properties":{"Public_Art":null,"Name":"Fountain sculpture at Pioneer Park","longitude":null,"latitude":null,"Address":"421 Nimrod St.","City":"Nevada City","State":"CA ","Zip":"95959","Description":"Design: Francis Lloyd, Sculptor: Norman Grag. The fountain was installed in 1976 with funds from the John J. Looser estate. The fountain was designed by architect Francis Lloyd and the metal sculpture was created by artist Norman Grag. The fountain was placed in the middle of an existing city street that ran through the park. The placement of the fountain resulted in an intentional redirection of the road. ","ObjectId":13}},{"type":"Feature","id":14,"geometry":{"type":"Point","coordinates":[-121.012456750422,39.2591615295895]},"properties":{"Public_Art":null,"Name":"Mural at Pioneer Park swimming pool","longitude":null,"latitude":null,"Address":"421 Nimrod St.","City":"Nevada City","State":"CA ","Zip":"95959","Description":"Artist: Jordan Mal did the project in 2016 as her Senior Project. Mural on the wall at the swimming pool -- serves as a painting and safety signage.  The wave on the wall matches the depth of the swimming pool, so if a child stands by the wall and the wave is over their head, they know that if they walk straight from that spot into the poolду_the water will be over their head.","ObjectId":14}},{"type":"Feature","id":15,"geometry":{"type":"Point","coordinates":[-121.017171559987,39.2630851993748]},"properties":{"Public_Art":null,"Name":"Robinson Plaza -- Mining sculptures: Pelton Water Wheel and Five Stamp Mill","longitude":null,"latitude":null,"Address":"132 Main St.","City":"Nevada City","State":"CA ","Zip":"95959","Description":"Pelton Water Wheel: Gift from PGE and Nevada City, dedicated Sept 17 1987. Pelton Water Wheel was in continuous use at PGE Drum Power House No. 4 from 1928-1987. 12 ft diameter, 15 tons.  Five-Stamp Mill: (1893) used to crush gold ore at Fortuna Mine near Nevada City. Donated to Nevada City by Bill Magers. Dedicated July 4, 1982 ","ObjectId":15}},{"type":"Feature","id":16,"geometry":{"type":"Point","coordinates":[-121.017171559987,39.2630851993748]},"properties":{"Public_Art":null,"Name":"Robinson Plaza -- Metal sculpture","longitude":null,"latitude":null,"Address":"132 Main St.","City":"Nevada City","State":"CA ","Zip":"95959","Description":"Artist:  Miriam Morris. Sculpture designed to block electrical boxes.\r","ObjectId":16}},{"type":"Feature","id":17,"geometry":{"type":"Point","coordinates":[-121.017927509367,39.262385998362]},"properties":{"Public_Art":null,"Name":"Calanan Park -- Metal sculpture","longitude":null,"latitude":null,"Address":"211 Broad St.","City":"Nevada City","State":"CA ","Zip":"95959","Description":"Artist:  Miriam Morris. Like Robinson Plaza, a metal sculpture designed to block electrical box.","ObjectId":17}},{"type":"Feature","id":18,"geometry":{"type":"Point","coordinates":[-121.017927509367,39.262385998362]},"properties":{"Public_Art":null,"Name":"Calanan Park -- old mining core, hydro monitor ","longitude":null,"latitude":null,"Address":"211 Broad St.","City":"Nevada City","State":"CA ","Zip":"95959","Description":"Shaft Drill Core Monitor","ObjectId":18}},{"type":"Feature","id":19,"geometry":{"type":"Point","coordinates":[-121.019990333212,39.2634313659402]},"properties":{"Public_Art":null,"Name":"Chinese Monument","longitude":null,"latitude":null,"Address":"412 Commercial St","City":"Nevada City","State":"CA ","Zip":"95959","Description":"The  Chinese Monument consists of a large rock, babbling fountain and dual plaques in English and old Chinese characters, all surrounded by natural landscaping.","ObjectId":19}},{"type":"Feature","id":20,"geometry":{"type":"Point","coordinates":[-121.024622440279,39.2699718303207]},"properties":{"Public_Art":null,"Name":"Madelyn Helling Library - sculpture ","longitude":null,"latitude":null,"Address":"980 Helling Way","City":"Nevada City","State":"CA ","Zip":"95959","Description":null,"ObjectId":20}},{"type":"Feature","id":21,"geometry":{"type":"Point","coordinates":[-121.065065260021,39.3530173612798]},"properties":{"Public_Art":null,"Name":"\"Ma Trux\" Mural at Mother Truckers","longitude":null,"latitude":null,"Address":"13224 Tyler Foote Rd.","City":"Nevada City","State":"CA","Zip":"95959","Description":"Artist:   David Randolf Griffis.  David says \"I painted the ma trux mural 16 years ago for a roast beef sandwich.\"  Mother Trucker's is like \"the town square of the ridge.\"","ObjectId":21}},{"type":"Feature","id":22,"geometry":{"type":"Point","coordinates":[-120.995754349191,39.3734536091797]},"properties":{"Public_Art":null,"Name":"Murals: Grizzly Hills School","longitude":null,"latitude":null,"Address":"16661 Old Mill Rd","City":"Nevada City","State":"CA","Zip":"95959","Description":"Murals: (1) ceramic birds of the ridge  (2) Gary Snyder quote","ObjectId":22}},{"type":"Feature","id":23,"geometry":{"type":"Point","coordinates":[-121.102044520981,39.3704868094061]},"properties":{"Public_Art":null,"Name":"North San Juan Post Office Mural","longitude":null,"latitude":null,"Address":"20092 Oak Tree Rd","City":"North San Juan","State":"CA","Zip":"95960","Description":"Artist: Andrea Eiermann. ","ObjectId":23}},{"type":"Feature","id":24,"geometry":{"type":"Point","coordinates":[-121.161225999922,39.3058320998273]},"properties":{"Public_Art":null,"Name":"\"The Eyes of North San Juan\"  Community Center mural project","longitude":39.368718,"latitude":-121.107964,"Address":null,"City":"North San Juan","State":"CA","Zip":"95960","Description":"By Grace Mack (Gem Visuals) with the help of 3 young ladies: Starlight (14,) Paisley (10) and Shyla (8.)\rLocated in front of the Community Center facing the 49 @29190 Hwy 49, North San Juan","ObjectId":24}},{"type":"Feature","id":25,"geometry":{"type":"Point","coordinates":[-121.084055007324,39.3628250766748]},"properties":{"Public_Art":null,"Name":"Oak Tree Pumphouse Mural","longitude":null,"latitude":null,"Address":"18841 Oak Tree Rd","City":"North San Juan","State":"CA","Zip":"95960","Description":"Artist: Grace Mack, Gem Visuals. Completed September 2016","ObjectId":25}},{"type":"Feature","id":26,"geometry":{"type":"Point","coordinates":[-121.084055007324,39.3628250766748]},"properties":{"Public_Art":null,"Name":"The Oak Tree Library Mural","longitude":null,"latitude":null,"Address":"18841 Oak Tree Rd","City":"North San Juan","State":"CA","Zip":"95960","Description":"Artist: Grace Mack, Gem Visuals. First two sides completed August 2017. Third wall completed May 2018","ObjectId":26}},{"type":"Feature","id":27,"geometry":{"type":"Point","coordinates":[-121.107613615806,39.3682089273551]},"properties":{"Public_Art":null,"Name":"\"Life Cycle of the Monarch\" mural project","longitude":null,"latitude":null,"Address":"29190 Hwy 49","City":"North San Juan","State":"CA","Zip":"95960","Description":"Concept: Avani Patrick. Four images designed by Grace Mack Gem Visuals, then transferred (with help from Stephanie Hubbard and Avani Patrick) to prepared plywood. The whole community was invited to come together to paint it.","ObjectId":27}},{"type":"Feature","id":28,"geometry":{"type":"Point","coordinates":[-121.107613615806,39.3682089273551]},"properties":{"Public_Art":null,"Name":"The Community Center Sign","longitude":null,"latitude":null,"Address":"29190 Hwy 49","City":"North San Juan","State":"CA","Zip":"95960","Description":"Artist: Grace Mack, Gem Visuals. Hand painted, two sided, 40 sq ft. Both faces of the sign (about 20 sq ft each) were individually hand painted over the spring and summer, then set into this frame by Avani Patrick, Nikko and team.","ObjectId":28}},{"type":"Feature","id":29,"geometry":{"type":"Point","coordinates":[-121.106088113858,39.3168692616133]},"properties":{"Public_Art":null,"Name":"Iron sculpture -- Ridge Cafн© sign","longitude":null,"latitude":null,"Address":"23918 Highway 49","City":"North San Juan","State":"CA","Zip":"95960","Description":"Artist: Eric Clausen.  An iron sculpture/sign at The Ridge Cafe. A cafe frequented by artists, farmers, craftsmen, tradesmen, mountain folk, neighbors, travelers, out-door enthusiasts, health-nuts, hippies & hillbillies.","ObjectId":29}},{"type":"Feature","id":30,"geometry":{"type":"Point","coordinates":[-120.185776174143,39.3277070026077]},"properties":{"Public_Art":null,"Name":"\"DeRailed\"  bike rack","longitude":null,"latitude":null,"Address":"10065 Donner Pass Rd.","City":"Truckee ","State":"CA ","Zip":"96161","Description":"Artist: Bernie LaForest of Striker Forge.  ''DeRailed'' which is part of the Truckee Artistic Bike Rack Project by TPAC, is made of repurposed rail steel. Created by artist Bernie LaForest of Striker Forge, it represents the railRd. and its role bringing commerce to California. It is fittingly placed in the plaza across from Truckee Train Station and was commissioned by the Town of Truckee.","ObjectId":30}},{"type":"Feature","id":31,"geometry":{"type":"Point","coordinates":[-120.290848334613,39.3216290675024]},"properties":{"Public_Art":null,"Name":"\"El Dragon\"  bike rack","longitude":null,"latitude":null,"Address":"15888 S. Shore Dr.","City":"Truckee ","State":"CA ","Zip":"96161","Description":"Artist: Mountain Forge, based on two second gradersду» design - Hope Smith and Florian Standteiner. ''El Dragon'' is part of the Truckee Artistic Bike Rack Project. It came to life with the help of Mountain Forge. Located at West End Beach on Donner Lake. It is meant to honor the Chinese who worked on the railroad in Truckee.","ObjectId":31}},{"type":"Feature","id":32,"geometry":{"type":"Point","coordinates":[-120.187201809482,39.3273390564858]},"properties":{"Public_Art":null,"Name":"\"High Iron\"  bike rack.","longitude":null,"latitude":null,"Address":"10156 Donner Pass Rd.","City":"Truckee ","State":"CA ","Zip":"96161","Description":"Artist: Bernie LaForest, Striker Forge. ''High Iron'' by Bernie LaForest of Striker Forge is the most vertical in the Truckee Artistic Bike Rack project. The sculpture is made of rail steel and was commissioned by the Town of Truckee.\r","ObjectId":32}},{"type":"Feature","id":33,"geometry":{"type":"Point","coordinates":[-120.186692469208,39.3273807347359]},"properties":{"Public_Art":null,"Name":"\"Locomotion\" bike sculpture","longitude":null,"latitude":null,"Address":"10091 Donner Pass Rd.","City":"Truckee ","State":"CA ","Zip":"96161","Description":"Artist: Fred Besch. ''Locomotion'' was created by local kinetic artist Fred Besch. The giant bike sculpture can be found in the plaza west of the historic Flying A building. The sculpture represents residents' love of biking. The art shares plaza space with a giant chess board that was created and donated by Truckee Roundhouse Makerspace.","ObjectId":33}},{"type":"Feature","id":34,"geometry":{"type":"Point","coordinates":[-120.254453000147,39.3530684002738]},"properties":{"Public_Art":null,"Name":"\"Martis Sculpture\" - front of Martis Outlook professional building.","longitude":39.316983,"latitude":-120.146936,"Address":null,"City":"Truckee ","State":"CA ","Zip":"96161","Description":"Artist: Anton Standteiner, Mountain Forge. ''Martis Sculpture'' was created by artist Anton Standteiner of The Mountain Forge and commissioned by the Town of Truckee.The flow and style of the sculpture honors the Native American people who once inhabited Martis Valley. It stands in front of the Martis Outlook professional building on the corner of Soaring Way and Truckee Tahoe Airport Way.","ObjectId":34}},{"type":"Feature","id":35,"geometry":{"type":"Point","coordinates":[-120.177711590901,39.3363059732852]},"properties":{"Public_Art":null,"Name":"\"Mountain Flowers\" sculpture","longitude":39.339042,"latitude":-120.173605,"Address":"Pioneer Trail Roundabout","City":"Truckee ","State":"CA ","Zip":"96161","Description":"Artist: Troy Corliss, Gallery 5830'. Mountain Flowers sculpture stands 16-18 feet high in the roundabout across from the Truckee Donner Community Center on Donner Pass Rd..  The sculpture was a gift to the Town of Truckee from artist Troy Corliss of Gallery 5830'. Other contributors, in services or supplies, were The Mountain Forge, JMC Industrial Finishing, Huldrege & Kull, and Perennial Landscape & Nursery.","ObjectId":35}},{"type":"Feature","id":36,"geometry":{"type":"Point","coordinates":[-120.195261990082,39.3263800683813]},"properties":{"Public_Art":null,"Name":"\"The Band\"","longitude":null,"latitude":null,"Address":"10644 Donner Pass Rd.","City":"Truckee ","State":"CA ","Zip":"96161","Description":"Designed by Anton Standteiner, this metal sculpture suggests the flow and movement of music.","ObjectId":36}},{"type":"Feature","id":37,"geometry":{"type":"Point","coordinates":[-120.173367684937,39.3392134671759]},"properties":{"Public_Art":null,"Name":"\"The Feather\"  bike rack project.","longitude":null,"latitude":null,"Address":"8924 Donner Pass Rd.","City":"Truckee ","State":"CA ","Zip":"96161","Description":"Artist: Lauren Bello Okerman.  ''The Feather'' is part of the Truckee Artistic Bike Rack Project by TPAC. It was designed by Lauren Bello Okerman and is made of powder coated steel. The art serves as a bike rack in front of the Truckee Donner Recreation & Park District. This sculpture was sponsored by the Queen of Hearts Women's Fund.","ObjectId":37}},{"type":"Feature","id":38,"geometry":{"type":"Point","coordinates":[-120.201501236193,39.3245789204201]},"properties":{"Public_Art":null,"Name":"\"Animal Tracks\" -- bike rack project. At Tahoe Forest Hospital.","longitude":null,"latitude":null,"Address":"10125 Pine Ave","City":"Truckee ","State":"CA ","Zip":"96161","Description":"Artist: Kevin Kremler.  ''Animal Tracks'' is a painted steel bike rack sculpture featuring paw prints of local animals. It was made by artist Kevin Kremler and is part of the TPAC Truckee Artistic Bike Rack Project. It was commissioned by Jae Gustafson for Tahoe Forest Hospital.","ObjectId":38}},{"type":"Feature","id":39,"geometry":{"type":"Point","coordinates":[-120.173367684937,39.3392134671759]},"properties":{"Public_Art":null,"Name":"\"Community As Ecosystem\"","longitude":null,"latitude":null,"Address":"8924 Donner Pass Rd.","City":"Truckee ","State":"CA ","Zip":"96161","Description":"Artists: Sara L. Smith, Toni Standteiner/Mountain Forge.  Commissioned by the TRDRPD, 'думCommunity As Ecosystem\" main mural image measures more than 11 ft. high by 16 ft. wide.  The piece celebrates Truckee's new Aquatic Center donors. The artists represent the concept of joyful balance noting each donor (no matter level of contribution) is a vital part of the overall effort.  The mural speaks to the wider concept of community as an ecosystem, and reminds us that we are all essential. The artists note: \"The mural is painted using sepia tones to tie us back to our past, and is painted upon a wall created with reclaimed Lake Tahoe pier wood, creating a tangible tie to our physical past and present.  It depicts a stylized image of Martis Valleyду»s diverse natural environment, and donors are represented by a combination of cut and manipulated animal shapes and forged iron environmental elements, such as mountain peaks, cattails and wave forms in the creek.  On a separate panel each and every donorду»s name has been hand lettered, grouped next to its corresponding donor category and animal shape.дуќ In addition two additional small panels were created to specifically recognize the individuals who helped shepherd the project to fruition, and well as the organizations that contributed multi-million dollar grant funds.","ObjectId":39}},{"type":"Feature","id":40,"geometry":{"type":"Point","coordinates":[-120.201332440954,39.3245304171907]},"properties":{"Public_Art":null,"Name":"\"Aspen Grove\" in Radiation Lobby at Tahoe Forest Cancer Center","longitude":null,"latitude":null,"Address":"10121 Pine Ave","City":"Truckee ","State":"CA ","Zip":"96161","Description":"Artist: Troy Corliss.  The colorful array of glass leaves in the Troy Corliss думAspen Groveдуќ welcomes patients and visitors to the Radiation Therapy waiting space. Fabricated in steel and kiln fused glass, the artwork integrates an experience of the natural world with interior architecture. The gentle curves of the tree trunks and the subtle patterning and warm colors of the glass leaves creates a three dimensional design that is both intriguing and calming. The Grove can be experienced as a powerful whole at first sight or explored with interest with repeated visits.","ObjectId":40}},{"type":"Feature","id":41,"geometry":{"type":"Point","coordinates":[-120.201501236193,39.3245789204201]},"properties":{"Public_Art":null,"Name":"Metal Bike","longitude":null,"latitude":null,"Address":"10125 Pine Ave","City":"Truckee ","State":"CA ","Zip":"96161","Description":"Justin Self, Fusion CraftWorks","ObjectId":41}},{"type":"Feature","id":42,"geometry":{"type":"Point","coordinates":[-120.163950582931,39.3219029008933]},"properties":{"Public_Art":null,"Name":"Metal Flower sculptures","longitude":null,"latitude":null,"Address":"11165 Brockway Rd.","City":"Truckee ","State":"CA ","Zip":"96161","Description":"Artist: Sally Peterson","ObjectId":42}}]}