{"type":"FeatureCollection","features":[{"type":"Feature","id":1,"geometry":{"type":"Point","coordinates":[-118.549530000163,35.7291199996589]},"properties":{"Walks_and_Trails":null,"Name":"Alan Thiesen Trail","Address":null,"City":"Alta Sierra ","State":"CA ","Zip_Code":95949,"Website":"https://www.bylt.org/trail/alan-thiesen-trail","ObjectId":1}},{"type":"Feature","id":2,"geometry":{"type":"Point","coordinates":[-121.07747090606,39.1362410557321]},"properties":{"Walks_and_Trails":null,"Name":"Alta Sierra Biblical Gardens","Address":"16343 Auburn Road","City":"Grass Valley","State":"CA","Zip_Code":95949,"Website":"http://biblicalgarden.org","ObjectId":2}},{"type":"Feature","id":3,"geometry":{"type":"Point","coordinates":[-121.044776876703,39.3692327490976]},"properties":{"Walks_and_Trails":null,"Name":"Ananda Village: Crystal Hermitage Gardens","Address":"14618 Tyler Foote Rd","City":"Nevada City ","State":"CA","Zip_Code":95959,"Website":"https://www.anandavillage.org/events-and-programs/springtime-at-ananda-2018/","ObjectId":3}},{"type":"Feature","id":4,"geometry":{"type":"Point","coordinates":[-121.073346000379,39.2287140003057]},"properties":{"Walks_and_Trails":null,"Name":"Bailey Trail","Address":"1000 Cooley Dr","City":"Grass Valley","State":"CA","Zip_Code":95945,"Website":null,"ObjectId":4}},{"type":"Feature","id":5,"geometry":{"type":"Point","coordinates":[-120.960225711108,39.1332050793561]},"properties":{"Walks_and_Trails":null,"Name":"Bear River Historic Bridge","Address":"20010 Colfax Hwy","City":"Grass Valley","State":"CA","Zip_Code":95945,"Website":"https://en.wikipedia.org/wiki/Bear_River_Bridge","ObjectId":5}},{"type":"Feature","id":6,"geometry":{"type":"Point","coordinates":[-120.085286574162,39.3989825255879]},"properties":{"Walks_and_Trails":null,"Name":"Boca Reservoir ","Address":"Stampede Dam Rd","City":"Truckee","State":"CA","Zip_Code":96161,"Website":"https://www.recreation.gov/camping/gateways/30","ObjectId":6}},{"type":"Feature","id":7,"geometry":{"type":"Point","coordinates":[-121.193693131906,39.2926039614791]},"properties":{"Walks_and_Trails":null,"Name":"Buttermilk Bend Trail ","Address":"17660 Pleasant Valley Rd","City":"Penn Valley ","State":"CA ","Zip_Code":95946,"Website":"http://syrpa.lindberglce.com/buttermilk.htm","ObjectId":7}},{"type":"Feature","id":8,"geometry":{"type":"Point","coordinates":[-120.997277935931,39.2404815679791]},"properties":{"Walks_and_Trails":null,"Name":"Cascade Canal Trail:Banner Mountain","Address":"14471 Gracie Rd","City":"Nevada City ","State":"CA","Zip_Code":95959,"Website":"https://www.bylt.org/trail/cascade-canal-trail/","ObjectId":8}},{"type":"Feature","id":9,"geometry":{"type":"Point","coordinates":[-121.019159999733,39.2627399999626]},"properties":{"Walks_and_Trails":null,"Name":"Champion Mine Rd. Trails","Address":null,"City":"Nevada City ","State":"CA","Zip_Code":95959,"Website":"http://gonevadacounty.com/attraction/champion-mine-road/","ObjectId":9}},{"type":"Feature","id":10,"geometry":{"type":"Point","coordinates":[-120.230239965387,39.318090697403]},"properties":{"Walks_and_Trails":null,"Name":"Coldstream Trailhead","Address":"Cold Stream Rd","City":"Truckee","State":"CA","Zip_Code":96161,"Website":"http://donnersummithistoricalsociety.org/","ObjectId":10}},{"type":"Feature","id":11,"geometry":{"type":"Point","coordinates":[-121.072652525234,39.2162272140732]},"properties":{"Walks_and_Trails":null,"Name":"Condon Park Trails","Address":"660 Minnie St","City":"Grass Valley","State":"CA","Zip_Code":95945,"Website":null,"ObjectId":11}},{"type":"Feature","id":12,"geometry":{"type":"Point","coordinates":[-120.232525510337,39.324685568617]},"properties":{"Walks_and_Trails":null,"Name":"Donner Memorial State Park","Address":"12593 Donner Pass Rd","City":"Truckee","State":"CA","Zip_Code":96161,"Website":"http://www.parks.ca.gov/?page_id=503","ObjectId":12}},{"type":"Feature","id":13,"geometry":{"type":"Point","coordinates":[-120.299276689731,39.3235773342099]},"properties":{"Walks_and_Trails":null,"Name":"Donner Summit Canyon ","Address":"16395 Donner Pass Rd","City":"Truckee","State":"CA","Zip_Code":96161,"Website":null,"ObjectId":13}},{"type":"Feature","id":14,"geometry":{"type":"Point","coordinates":[-120.23182071103,39.3246483069837]},"properties":{"Walks_and_Trails":null,"Name":"Donner Summit: Petroglyphs and Bridge ","Address":"Donner Pass Rd","City":"Truckee","State":"CA","Zip_Code":96161,"Website":null,"ObjectId":14}},{"type":"Feature","id":15,"geometry":{"type":"Point","coordinates":[-120.662217109348,39.356823611252]},"properties":{"Walks_and_Trails":null,"Name":"Emerald Pools: South Yuba River","Address":"Forest Rte 18","City":"Nevada City ","State":"CA","Zip_Code":95959,"Website":"https://www.outdoorproject.com/adventures/california/hikes/emerald-pools","ObjectId":15}},{"type":"Feature","id":16,"geometry":{"type":"Point","coordinates":[-121.05529036892,39.2132673768185]},"properties":{"Walks_and_Trails":null,"Name":"Empire Mine: Memorial Park Trail","Address":"350 Race St","City":"Grass Valley","State":"CA","Zip_Code":95945,"Website":"https://www.bylt.org/trail/memorial-park-trail/","ObjectId":16}},{"type":"Feature","id":17,"geometry":{"type":"Point","coordinates":[-121.040345365236,39.2065563292905]},"properties":{"Walks_and_Trails":null,"Name":"Empire Mine: Osborne-Hill Trails","Address":"11471 Colfax Hwy","City":"Grass Valley","State":"CA","Zip_Code":95945,"Website":"https://www.bylt.org/trail/osborne-hill-trail-area/","ObjectId":17}},{"type":"Feature","id":18,"geometry":{"type":"Point","coordinates":[-121.043955980027,39.2117488027381]},"properties":{"Walks_and_Trails":null,"Name":"Empire Mine: Union Hill Trail Area ","Address":"11060 Gold Hill Dr","City":"Grass Valley","State":"CA","Zip_Code":95945,"Website":"https://www.bylt.org/trail/union-hill-trail-area/","ObjectId":18}},{"type":"Feature","id":19,"geometry":{"type":"Point","coordinates":[-121.016175318456,39.2621058184228]},"properties":{"Walks_and_Trails":null,"Name":"Fall Colors in Nevada City:self guided tour","Address":"100 Broad St","City":"Nevada City","State":"CA","Zip_Code":95959,"Website":null,"ObjectId":19}},{"type":"Feature","id":20,"geometry":{"type":"Point","coordinates":[-121.049307229801,39.2827603464905]},"properties":{"Walks_and_Trails":null,"Name":"Hirschman Trail","Address":"1000 Cement Hill Rd","City":"Nevada City","State":"CA","Zip_Code":95959,"Website":null,"ObjectId":20}},{"type":"Feature","id":21,"geometry":{"type":"Point","coordinates":[-120.325200000011,39.2471299999568]},"properties":{"Walks_and_Trails":null,"Name":"Hole in the Ground Trail","Address":null,"City":"Soda Springs","State":"CA","Zip_Code":95728,"Website":"https://www.alltrails.com/trail/us/california/hole-in-the-ground-trail","ObjectId":21}},{"type":"Feature","id":22,"geometry":{"type":"Point","coordinates":[-121.085495412763,39.3136751727565]},"properties":{"Walks_and_Trails":null,"Name":"Hoyt Trail - South Yuba River ","Address":"Hoyt Crossing Rd","City":"Nevada City ","State":"CA","Zip_Code":95959,"Website":"https://www.bylt.org/trail/hoyt-trail/","ObjectId":22}},{"type":"Feature","id":23,"geometry":{"type":"Point","coordinates":[-121.091408319795,39.2291424406067]},"properties":{"Walks_and_Trails":null,"Name":"Kenny Ranch Trails","Address":"11726 Rough and Ready Hwy","City":"Grass Valley","State":"CA","Zip_Code":95945,"Website":null,"ObjectId":23}},{"type":"Feature","id":24,"geometry":{"type":"Point","coordinates":[-121.047192000039,39.2435596553415]},"properties":{"Walks_and_Trails":null,"Name":"Litton Trail","Address":"1000 Via Colina Dr","City":"Nevada City","State":"CA","Zip_Code":95959,"Website":null,"ObjectId":24}},{"type":"Feature","id":25,"geometry":{"type":"Point","coordinates":[-121.023178217898,39.2188809099083]},"properties":{"Walks_and_Trails":null,"Name":"Loma Rica Trail","Address":"1500 Brunswick Rd","City":"Grass Valley","State":"CA","Zip_Code":95945,"Website":null,"ObjectId":25}},{"type":"Feature","id":26,"geometry":{"type":"Point","coordinates":[-120.898957242744,39.3687429388149]},"properties":{"Walks_and_Trails":null,"Name":"Malakoff Diggins State Historic Park","Address":"23579 N Bloomfield Rd","City":"Nevada City ","State":"CA","Zip_Code":95959,"Website":null,"ObjectId":26}},{"type":"Feature","id":27,"geometry":{"type":"Point","coordinates":[-120.966971810059,39.1450875381906]},"properties":{"Walks_and_Trails":null,"Name":"Narrow Gauge Trail ","Address":"19077 Colfax Hwy","City":"Grass Valley","State":"CA","Zip_Code":95945,"Website":"https://www.bylt.org/trail/narrow-gauge-trail/","ObjectId":27}},{"type":"Feature","id":28,"geometry":{"type":"Point","coordinates":[-121.027249334257,39.2782248356988]},"properties":{"Walks_and_Trails":null,"Name":"Nevada City Airport Trails ","Address":"15722 Airport Rd","City":"Nevada City ","State":"CA","Zip_Code":95959,"Website":"https://www.bylt.org/trail/nevada-city-airport-trails/","ObjectId":28}},{"type":"Feature","id":29,"geometry":{"type":"Point","coordinates":[-121.078016051385,39.2042868687915]},"properties":{"Walks_and_Trails":null,"Name":"Nevada County Fairgrounds","Address":"11410 McCourtney Rd","City":"Grass Valley","State":"CA","Zip_Code":95949,"Website":"http://gonevadacounty.com/attraction/nevada-county-fairgrounds/","ObjectId":29}},{"type":"Feature","id":30,"geometry":{"type":"Point","coordinates":[-120.350587776939,39.3375863718515]},"properties":{"Walks_and_Trails":null,"Name":"Pacific Crest Trail/Castle Peak Trailhead","Address":"Boreal Ridge Rd","City":"Soda Springs","State":"CA","Zip_Code":95728,"Website":"https://www.visitcalifornia.com/attraction/pacific-crest-trail-castle-peak","ObjectId":30}},{"type":"Feature","id":31,"geometry":{"type":"Point","coordinates":[-120.325200000011,39.2471299999568]},"properties":{"Walks_and_Trails":null,"Name":"Palisades Creek Trail","Address":null,"City":"Soda Springs","State":"CA","Zip_Code":95728,"Website":"https://www.alltrails.com/trail/us/california/palisade-creek-trail","ObjectId":31}},{"type":"Feature","id":32,"geometry":{"type":"Point","coordinates":[-120.968435275251,39.1466411694017]},"properties":{"Walks_and_Trails":null,"Name":"Park and Walk Trail: Chicago Park","Address":"17748 Lower Colfax Rd","City":"Chicago Park","State":"CA","Zip_Code":95712,"Website":"https://www.bylt.org/trail/park-and-walk-trail/","ObjectId":32}},{"type":"Feature","id":33,"geometry":{"type":"Point","coordinates":[-121.176149250003,39.1978034208719]},"properties":{"Walks_and_Trails":null,"Name":"Penn Valley Bike Trail","Address":"17384 Penn Valley Dr","City":"Penn Valley ","State":"CA ","Zip_Code":95946,"Website":"https://www.bylt.org/trail/penn-valley-bike-trail/","ObjectId":33}},{"type":"Feature","id":34,"geometry":{"type":"Point","coordinates":[-121.012456750422,39.2591615295895]},"properties":{"Walks_and_Trails":null,"Name":"Pioneer Park ","Address":"421 Nimrod St","City":"Nevada City ","State":"CA","Zip_Code":95959,"Website":"http://gonevadacounty.com/attraction/pioneer-park/","ObjectId":34}},{"type":"Feature","id":35,"geometry":{"type":"Point","coordinates":[-121.193693131906,39.2926039614791]},"properties":{"Walks_and_Trails":null,"Name":"Point Defiance Trail ","Address":"17660 Pleasant Valley Rd","City":"Penn Valley ","State":"CA ","Zip_Code":95946,"Website":"http://syrpa.lindberglce.com/defiance.htm","ObjectId":35}},{"type":"Feature","id":36,"geometry":{"type":"Point","coordinates":[-121.078026637132,39.1947798751837]},"properties":{"Walks_and_Trails":null,"Name":"Rambler Trail: Clover Valley Preserve","Address":"12183 Auburn Rd","City":"Alta Sierra ","State":"CA ","Zip_Code":95949,"Website":"https://www.bylt.org/trail/rambler-trail/","ObjectId":36}},{"type":"Feature","id":37,"geometry":{"type":"Point","coordinates":[-121.031601716724,39.171266321157]},"properties":{"Walks_and_Trails":null,"Name":"Rattlesnake Trail","Address":"10000 Rattlesnake Rd","City":"Grass Valley","State":"CA","Zip_Code":95945,"Website":null,"ObjectId":37}},{"type":"Feature","id":38,"geometry":{"type":"Point","coordinates":[-122.634344598753,38.0081648658863]},"properties":{"Walks_and_Trails":null,"Name":"Sawtooth Trailhead","Address":"11632 06 Fire Rd","City":"Truckee","State":"CA","Zip_Code":96161,"Website":null,"ObjectId":38}},{"type":"Feature","id":39,"geometry":{"type":"Point","coordinates":[-120.92222155685,39.2828625207504]},"properties":{"Walks_and_Trails":null,"Name":"Scotts Flat Lake and Trails","Address":"23333 Scotts Flat Rd","City":"Nevada City ","State":"CA","Zip_Code":95959,"Website":null,"ObjectId":39}},{"type":"Feature","id":40,"geometry":{"type":"Point","coordinates":[-120.264613851512,39.32700674071]},"properties":{"Walks_and_Trails":null,"Name":"Shoreline Park ","Address":"14551 Donner Pass Rd","City":"Truckee","State":"CA","Zip_Code":96161,"Website":"http://www.tdrpd.org/parks/shoreline-park.html","ObjectId":40}},{"type":"Feature","id":41,"geometry":{"type":"Point","coordinates":[-121.193693131906,39.2926039614791]},"properties":{"Walks_and_Trails":null,"Name":"South Yuba River State Park","Address":"17660 Pleasant Valley Rd","City":"Penn Valley ","State":"CA ","Zip_Code":95946,"Website":"http://syrpa.lindberglce.com/visitor.htm","ObjectId":41}},{"type":"Feature","id":42,"geometry":{"type":"Point","coordinates":[-120.637162660391,39.3211935779083]},"properties":{"Walks_and_Trails":null,"Name":"Spaulding Reservoir ","Address":"10248 Lake Spaulding Rd","City":"Nevada City ","State":"CA","Zip_Code":95959,"Website":"http://www.aboutnevadacounty.com/lakes/spaulding/","ObjectId":42}},{"type":"Feature","id":43,"geometry":{"type":"Point","coordinates":[-121.016989163357,39.2647816642658]},"properties":{"Walks_and_Trails":null,"Name":"Sugarloaf Mountain","Address":"300 Coyote St","City":"Nevada City","State":"CA","Zip_Code":95959,"Website":null,"ObjectId":43}},{"type":"Feature","id":44,"geometry":{"type":"Point","coordinates":[-120.325200000011,39.2471299999568]},"properties":{"Walks_and_Trails":null,"Name":"Summit Lake Trail ","Address":null,"City":"Soda Springs","State":"CA","Zip_Code":95728,"Website":"https://www.alltrails.com/trail/us/california/summit-lake-trail","ObjectId":44}},{"type":"Feature","id":45,"geometry":{"type":"Point","coordinates":[-121.09911329126,39.2904120918655]},"properties":{"Walks_and_Trails":null,"Name":"The Independence Trail","Address":"20349 CA-49","City":"Nevada City ","State":"CA","Zip_Code":95959,"Website":"https://www.bylt.org/trail/independence-trail-west/","ObjectId":45}},{"type":"Feature","id":46,"geometry":{"type":"Point","coordinates":[-120.181638839372,39.3260484373833]},"properties":{"Walks_and_Trails":null,"Name":"Truckee River Legacy Trail","Address":"10050 Brockway Rd","City":"Truckee","State":"CA","Zip_Code":96161,"Website":"https://www.traillink.com/trail/truckee-river-legacy-trail/","ObjectId":46}},{"type":"Feature","id":47,"geometry":{"type":"Point","coordinates":[-120.181638839372,39.3260484373833]},"properties":{"Walks_and_Trails":null,"Name":"Truckee River Regional Park","Address":"10050 Brockway Rd","City":"Truckee","State":"CA","Zip_Code":96161,"Website":"http://www.tdrpd.org/parks/195-regional-park.html","ObjectId":47}},{"type":"Feature","id":48,"geometry":{"type":"Point","coordinates":[-121.06216654033,39.2191961444715]},"properties":{"Walks_and_Trails":null,"Name":"Walking Tour of Historic Grass Valley: self guided and guided","Address":"100 West Main St","City":"Grass Valley","State":"CA","Zip_Code":95945,"Website":null,"ObjectId":48}},{"type":"Feature","id":49,"geometry":{"type":"Point","coordinates":[-121.016175318456,39.2621058184228]},"properties":{"Walks_and_Trails":null,"Name":"Walking Tour of Nevada City Trees","Address":"100 Broad St","City":"Nevada City ","State":"CA","Zip_Code":95959,"Website":null,"ObjectId":49}},{"type":"Feature","id":50,"geometry":{"type":"Point","coordinates":[-120.290848334613,39.3216290675024]},"properties":{"Walks_and_Trails":null,"Name":"West End Beach ","Address":"15888 South Shore Dr","City":"Truckee","State":"CA","Zip_Code":96161,"Website":"http://www.tdrpd.org/parks/west-end-beach.html","ObjectId":50}},{"type":"Feature","id":51,"geometry":{"type":"Point","coordinates":[-121.192161383074,39.2013064093612]},"properties":{"Walks_and_Trails":null,"Name":"Western Gateway Park ","Address":"18560 Penn Valley Dr","City":"Penn Valley ","State":"CA ","Zip_Code":95946,"Website":"http://gonevadacounty.com/attraction/western-gateway-park/","ObjectId":51}},{"type":"Feature","id":52,"geometry":{"type":"Point","coordinates":[-121.025987112349,39.28506876282]},"properties":{"Walks_and_Trails":null,"Name":"Yeweiâ€™im Bom Trail Burton Homestead  ","Address":"16200 Lake Vera Purdon Rd","City":"Nevada City ","State":"CA","Zip_Code":95959,"Website":"https://www.bylt.org/trail/yeweiim-bom-trail/","ObjectId":52}}]}